Year,State,County,Latitude,Longitude,Maxprec
1997,NV,Nye,37.966378999999996,116.459047,21.09041634348953
1997,CA,Inyo,36.561977,117.403927,27.87445645901909
1997,CA,San Bernardino,34.85722,116.181197,33.669745287336546
1997,AZ,Navajo,35.390934,110.320908,20.19196196117043
1997,AZ,Apache,35.385845,109.493747,18.6011633246438
1997,ME,Oxford,44.494585,70.734688,51.64605397835516
1997,ME,Penobscot,45.390602,68.657487,36.558944700398655
1997,ME,Somerset,45.507482,69.97604,32.847530672357514
1997,ME,Aroostook,46.727057,68.64941,33.67267097137236
1997,MN,St. Louis,47.583852,92.463645,34.9501539268026
1997,MT,Custer,46.261480999999996,105.55050800000001,40.75628299103574
1997,MT,Rosebud,46.161734,106.701953,39.37952271333951
1997,MT,Valley,48.365713,106.68788300000001,27.356871455660357
1997,MT,Garfield,47.281174,106.982212,42.150471789684026
1997,MT,Big Horn,45.407869,107.51816299999999,28.42007755431493
1997,WY,Park,44.492387,109.593598,22.225085041830244
1997,MT,Park,45.421904999999995,110.532798,25.236043872450924
1997,MT,Beaverhead,45.133863,112.89286899999999,19.83446998156647
1997,MT,Gallatin,45.535559,111.17344299999999,26.29407174657795
1997,MT,Powell,46.844225,112.9311,25.10517489509666
1997,MT,Lewis and Clark,47.122133000000005,112.382954,26.77137414184945
1997,MT,Flathead,48.314696000000005,114.05431899999999,32.2950249612788
1997,ID,Idaho,45.849237,115.467376,37.71566255482886
1997,ID,Valley,44.771532,115.637875,49.92074710284933
1997,ID,Lemhi,44.928789,113.887841,24.031051231981486
1997,ID,Custer,44.273340999999995,114.252251,38.92144405133656
1997,ID,Elmore,43.394826,115.470751,27.434155940256254
1997,OR,Malheur,43.1877,117.603976,18.577323503618125
1997,ID,Owyhee,42.593063,116.142655,17.46111675880027
1997,OR,Harney,43.064355,118.985949,18.85492006273697
1997,OR,Douglas,43.285903999999995,123.15438,54.40611930979105
1997,OR,Lane,43.928276000000004,122.897678,58.55696075845439
1997,OR,Lake,42.788401,120.38978999999999,32.76876547264854
1997,OR,Klamath,42.683761,121.64616799999999,47.20359520007681
1997,CA,Siskiyou,41.587986,122.53328700000002,78.0050154384446
1997,CA,Trinity,40.647724,123.11440400000001,85.42709870080155
1997,CA,Humboldt,40.706672999999995,123.92581799999999,95.7067977909221
1997,CA,Mendocino,39.432388,123.442881,77.1034717714895
1997,CA,Monterey,36.240107,121.315573,64.92417141309564
1997,CA,Fresno,36.761006,119.655019,56.77961884680336
1997,CA,Shasta,40.760521999999995,122.04355,78.91401416536313
1997,CA,Lassen,40.721089,120.629931,44.262287798548726
1997,NV,Washoe,40.703311,119.710315,28.058057320587487
1997,NV,Humboldt,41.407914,118.12759199999999,16.437716745606142
1997,NV,Eureka,39.977788000000004,116.272208,17.37444582057821
1997,NV,Lander,39.900211,117.04723999999999,17.843485958605704
1997,NV,Elko,41.141133,115.351424,19.80285714518443
1997,NV,White Pine,39.417804,114.900945,23.495624575690503
1997,NV,Lincoln,37.634605,114.863037,31.94256031924701
1997,CA,Mono,37.915836,118.87516699999999,49.11435434125243
1997,AZ,Mohave,35.717705,113.74968899999999,32.33855844812073
1997,NV,Clark,36.214236,115.013819,21.6519524763062
1997,AZ,Yuma,32.773942,113.910905,30.02047566587493
1997,CA,Riverside,33.729828000000005,116.00223899999999,45.59313722537893
1997,CA,Los Angeles,34.196397999999995,118.26186200000001,43.02975920771547
1997,CA,Ventura,34.358742,119.13314299999999,84.72177215180704
1997,CA,Kern,35.346629,118.729506,26.82249862598824
1997,CA,Santa Barbara,34.537378000000004,120.03848500000001,117.30706494036544
1997,TX,Pecos,30.770894000000002,102.71986,23.889580947107177
1997,CO,Las Animas,37.318831,104.04411,28.48699036964825
1997,NM,Chaves,33.361605,104.469837,28.81523141955961
1997,NM,Cibola,34.93205,108.00025500000001,22.80604115896553
1997,AZ,Pima,32.128237,111.783018,22.25604026950929
1997,AZ,Maricopa,33.346540999999995,112.495534,24.531054400489626
1997,AZ,Coconino,35.829692,111.773728,26.388731317875482
1997,UT,Kane,37.275118,111.81541299999999,26.067595467162572
1997,UT,San Juan,37.623064,109.78931999999999,20.931569827851668
1997,NM,Rio Arriba,36.509669,106.693983,19.69117672126824
1997,CO,Garfield,39.599352,107.90978,32.257288379705784
1997,CO,Rio Blanco,39.972606,108.20068500000001,28.163269792407387
1997,UT,Garfield,37.831621999999996,111.45088600000001,27.00279577887794
1997,UT,Juab,39.710827,112.79426200000002,21.76016041743225
1997,UT,Uintah,40.125887,109.517748,19.295368432507576
1997,WY,Lincoln,42.228788,110.679842,19.8735596801402
1997,WY,Fremont,43.055303,108.605531,20.61675371675393
1997,WY,Sweetwater,41.660339,108.875676,14.445704234498924
1997,WY,Carbon,41.703590000000005,106.933153,19.146813034433
1997,NE,Cherry,42.566984999999995,101.072622,38.07844414289478
1997,SD,Pennington,44.002349,102.823802,42.66919188947941
1997,FL,Monroe,25.601043,81.206777,71.50263526414297
1997,NY,Suffolk,40.943554,72.69221800000001,49.53255111678237
1997,ME,Hancock,44.564906,68.370703,40.829595636751996
1997,ME,Washington,44.967009000000004,67.60935400000001,38.991220407061206
1997,ME,Franklin,44.973012,70.444727,40.41933888568002
1997,ME,Cumberland,43.808347999999995,70.330375,70.91852036073061
1997,NH,Grafton,43.926488,71.842264,49.12621297101159
1997,VT,Caledonia,44.468790999999996,72.11216800000001,51.32734936853887
1997,VT,Essex,44.724021,71.732736,45.09859030974516
1997,NH,Coos,44.652419,71.289383,47.17491080491047
1997,ME,Piscataquis,45.917678,69.104548,34.491890661238955
1997,NY,Essex,44.108971000000004,73.777573,35.934407165903465
1997,NY,Franklin,44.594374,74.31067,34.588099046346194
1997,NY,Clinton,44.75271,73.705648,37.7029722691866
1997,NY,St. Lawrence,44.488113,75.074311,38.02374146303849
1997,MI,Presque Isle,45.489515000000004,83.384019,29.835168885950278
1997,MI,Chippewa,46.321819,84.52063000000001,24.293552139727243
1997,MI,Mackinac,46.167981,85.303756,24.918235390124522
1997,MI,Charlevoix,45.513164,85.45039200000001,35.23309634205157
1997,MI,Delta,45.805101,86.90137299999999,36.64224539949952
1997,MI,Schoolcraft,46.020758,86.199352,29.86568028378581
1997,MI,Alger,47.080077,86.56410799999999,32.97781118532833
1997,MI,Marquette,46.656597,87.584028,30.303892599146753
1997,MI,Menominee,45.544174,87.50989200000001,37.326084807414354
1997,WI,Marinette,45.346899,87.991198,41.46265211892327
1997,WI,Langlade,45.259204,89.06819,40.20235706432596
1997,WI,Oneida,45.713791,89.536693,36.191307299944135
1997,MI,Gogebic,46.488054,89.788314,30.58489396335325
1997,WI,Vilas,46.049848,89.501254,34.80362073584884
1997,MI,Houghton,46.998305,88.652066,28.152491771978607
1997,MI,Ontonagon,47.216604,89.500461,31.677511152601074
1997,MI,Keweenaw,47.681981,88.148802,26.707939632466783
1997,MN,Lake,47.517111,91.411704,37.74814433025018
1997,MN,Cook,47.538571000000005,90.29019,49.68383133787874
1997,WI,Ashland,46.546291,90.665154,35.03888384908711
1997,WI,Taylor,45.211656,90.504853,33.00163577016988
1997,WI,Rusk,45.472734,91.13674499999999,33.29258557066077
1997,WI,Douglas,46.463316,91.89258000000001,41.523052941138396
1997,WI,Bayfield,46.634199,91.17728199999999,35.67412276413525
1997,MN,Aitkin,46.602446,93.41976,39.426190890461726
1997,WI,Burnett,45.865255,92.36797800000001,37.895217432960884
1997,WI,Polk,45.46803,92.453154,45.07139923254838
1997,MN,Stearns,45.555234999999996,94.61048199999999,39.540311394835726
1997,MN,Morrison,46.020484,94.26661899999999,30.954508863697075
1997,MN,Cass,46.951427,94.333773,36.821032123963
1997,MN,Beltrami,47.878825,94.986698,38.22220997190813
1997,MN,Itasca,47.490843,93.613128,37.22029562986615
1997,MN,Koochiching,48.245490000000004,93.782842,30.233046445571798
1997,MN,Lake of the Woods,48.7681,94.904634,32.27811291819578
1997,ND,Cavalier,48.768439,98.46379,37.27994001783349
1997,ND,Walsh,48.376979,97.72223000000001,36.718457707134206
1997,ND,Grand Forks,47.926003,97.450851,32.52877943532325
1997,MN,Marshall,48.362728000000004,96.357761,33.43386139720739
1997,MN,Roseau,48.761066,95.82153000000001,31.952928222254442
1997,MN,Pennington,48.069247,96.037725,36.64881158748982
1997,MN,Polk,47.774254,96.40002700000001,43.833074187000506
1997,MN,Clearwater,47.575873,95.371117,47.355897841364545
1997,MN,Becker,46.937629,95.74175699999999,40.21095372435726
1997,MN,Wilkin,46.362334999999995,96.47665699999999,30.868598844534645
1997,MN,Otter Tail,46.405725,95.714578,31.363418162272144
1997,SD,Grant,45.172637,96.772261,35.2550854927436
1997,SD,Roberts,45.623397,96.947551,30.877454363834
1997,SD,Day,45.362283000000005,97.593734,37.758584867056285
1997,ND,Richland,46.265219,96.93796,29.797150821503358
1997,ND,Cass,46.927003000000006,97.252375,31.349368042086954
1997,ND,Barnes,46.94255,98.070195,31.738251458132186
1997,ND,Logan,46.469278,99.50458499999999,37.162719858176544
1997,ND,Dickey,46.107756,98.49651800000001,28.261281300134854
1997,ND,LaMoure,46.464195000000004,98.526057,31.2059306386242
1997,SD,Brown,45.589254,98.352175,30.25476195557106
1997,SD,Edmunds,45.41168,99.205362,26.905770806321755
1997,SD,McPherson,45.784248999999996,99.211421,24.85259040194191
1997,SD,Potter,45.064276,99.94963100000001,35.52124659466671
1997,ND,Morton,46.713789,101.27974300000001,31.66264684704331
1997,ND,McLean,47.653055,101.42179399999999,33.6595082204496
1997,ND,Burleigh,46.971843,100.462001,35.74216361620542
1997,ND,Kidder,46.935385,99.742727,30.245547884851785
1997,ND,Stutsman,46.971103,98.957592,30.444023601820998
1997,ND,Ramsey,48.265551,98.737329,34.45805962464577
1997,ND,Benson,48.071738,99.361987,36.645594833054616
1997,ND,McHenry,48.233841999999996,100.633267,26.271503720281736
1997,ND,Bottineau,48.794412,100.831257,28.11100998408607
1997,ND,Ward,48.216685999999996,101.540537,27.412629442131003
1997,ND,Williams,48.345867,103.4874,70.5966156791204
1997,MT,Daniels,48.794429,105.54173899999999,38.06498352514494
1997,MT,Roosevelt,48.282747,104.99517,61.72832265722654
1997,MT,Sheridan,48.705523,104.533913,54.76171856077377
1997,MT,Richland,47.785513,104.563387,66.38030096616045
1997,ND,Golden Valley,46.938924,103.844612,39.77748392503385
1997,ND,Billings,47.009283,103.364924,39.33863903676413
1997,ND,McKenzie,47.742475,103.403215,60.52205215572466
1997,ND,Dunn,47.35461,102.612365,42.07277755402696
1997,ND,Mercer,47.303278999999996,101.82076500000001,28.838772098111548
1997,ND,Hettinger,46.434939,102.45838499999999,26.114141841569253
1997,ND,Stark,46.817031,102.662026,31.949658649724284
1997,ND,Adams,46.096815,102.533198,24.314024445872
1997,ND,Sioux,46.109282,101.047525,29.410529343498787
1997,SD,Corson,45.69834,101.176017,31.808538121356722
1997,SD,Dewey,45.150005,100.85221800000001,32.447088266750804
1997,SD,Ziebach,44.981666,101.669225,32.221848661489496
1997,SD,Meade,44.606792,102.715864,34.233966858175656
1997,SD,Butte,44.896435,103.501762,26.267735230250587
1997,SD,Harding,45.596612,103.473867,24.22297248254918
1997,SD,Perkins,45.483387,102.467995,23.017764899600174
1997,ND,Slope,46.445834000000005,103.462462,23.17562269604714
1997,ND,Bowman,46.107807,103.506586,26.524668070891035
1997,MT,Fallon,46.318184,104.40571800000001,28.237260782842554
1997,MT,Powder River,45.40889,105.555259,22.44076667871953
1997,MT,Carter,45.516825,104.51532399999999,23.9615759061172
1997,WY,Crook,44.589265999999995,104.567298,27.075022027422904
1997,WY,Campbell,44.241321,105.552029,23.52807404755341
1997,WY,Johnson,44.044048,106.58854099999999,25.898196824937735
1997,WY,Sheridan,44.781369,106.88121100000001,25.423542901164193
1997,MT,Dawson,47.272425,104.901027,56.76318502860977
1997,MT,Prairie,46.852434,105.375808,52.0220902117774
1997,MT,McCone,47.629628000000004,105.757222,55.36748627554267
1997,MT,Phillips,48.250155,107.92883300000001,24.726876736189478
1997,MT,Petroleum,47.141917,108.226575,34.74549090209096
1997,MT,Blaine,48.428282,108.967648,26.23979603011281
1997,MT,Fergus,47.222997,109.22328,34.482845368262026
1997,MT,Chouteau,47.886837,110.43618899999998,26.348833253850465
1997,MT,Cascade,47.316443,111.350571,26.518023638904253
1997,MT,Meagher,46.585706,110.92178100000001,30.85977094326663
1997,MT,Golden Valley,46.380624,109.174586,32.47212131564775
1997,MT,Musselshell,46.505665,108.436982,33.342624150729606
1997,MT,Yellowstone,45.936987,108.276656,37.514928440351746
1997,MT,Carbon,45.224475,109.02855100000001,26.00520341832099
1997,WY,Washakie,43.878831,107.66905200000001,18.7725383403312
1997,WY,Big Horn,44.525653999999996,107.993321,17.606486692443895
1997,WY,Hot Springs,43.720871,108.435652,22.787545711204626
1997,MT,Stillwater,45.663496,109.391752,32.51881433837306
1997,MT,Sweet Grass,45.81306,109.94131200000001,30.39197840178509
1997,MT,Madison,45.319288,111.917328,19.6225875107626
1997,WY,Teton,44.049321,110.588102,41.10568271054822
1997,ID,Fremont,44.218090999999994,111.484429,31.647173736536303
1997,ID,Bonneville,43.395171000000005,111.62187800000001,17.263170309483222
1997,ID,Bingham,43.216357,112.399206,13.636760553941695
1997,ID,Butte,43.6851,113.177627,26.983273561514753
1997,ID,Clark,44.286251,112.36112,22.4075291915948
1997,MT,Jefferson,46.126557,112.056771,23.462048331741467
1997,MT,Broadwater,46.334476,111.496103,20.76823729998898
1997,MT,Deer Lodge,46.099059000000004,113.13910800000001,23.767418398484462
1997,MT,Granite,46.395358,113.425683,27.916695466269413
1997,MT,Missoula,47.027263,113.89268100000001,29.0054412437273
1997,MT,Ravalli,46.079298,114.11906499999999,35.509844868225606
1997,ID,Clearwater,46.67257,115.6535,41.28845090664432
1997,ID,Shoshone,47.347694,115.88509199999999,37.049702107836794
1997,MT,Mineral,47.155213,115.06455,38.64760770912649
1997,ID,Kootenai,47.677113,116.69491799999999,33.09503445259781
1997,WA,Stevens,48.390648,117.854897,23.87762928926852
1997,WA,Pend Oreille,48.543877,117.232183,36.40049192278547
1997,ID,Bonner,48.312512,116.59693999999999,32.54592842006666
1997,MT,Lincoln,48.542232,115.404343,31.194118334739752
1997,MT,Sanders,47.756469,115.180225,31.294882464434266
1997,MT,Lake,47.642901,114.08368700000001,26.268993630806538
1997,MT,Glacier,48.705671,112.990502,36.5090965284315
1997,MT,Teton,47.819035,112.281725,33.5434516837613
1997,MT,Pondera,48.230312,112.219928,36.87509148773797
1997,MT,Hill,48.628331,110.106372,22.78455322174737
1997,MT,Liberty,48.559653999999995,111.036924,22.02979180687493
1997,MT,Toole,48.645052,111.733493,28.41678524907225
1997,WA,Whatcom,48.842653000000006,121.83643300000001,82.50732806816531
1997,WA,Skagit,48.493066,121.816278,89.11527086445857
1997,WA,Clallam,48.113009000000005,123.93061100000001,108.88245907167658
1997,WA,Pierce,47.040715999999996,122.144709,59.75398382823914
1997,WA,Jefferson,47.802640999999994,123.52181000000002,113.19817823776268
1997,WA,Grays Harbor,47.142786,123.82704299999999,101.86377888469572
1997,WA,Skamania,46.024782,121.953227,117.1571142709988
1997,WA,Lewis,46.580071000000004,122.377444,66.02757809763116
1997,WA,Yakima,46.456558,120.740145,33.95563223995936
1997,WA,Franklin,46.53458,118.906944,13.034447286462104
1997,WA,Grant,47.213633,119.46778799999998,12.966032369330993
1997,WA,Kittitas,47.124444,120.67671399999999,46.38464475955388
1997,WA,King,47.493553999999996,121.832375,68.59371534626867
1997,WA,Snohomish,48.054913,121.76641200000002,77.10551240075723
1997,WA,Chelan,47.859891999999995,120.61854299999999,53.37666016486434
1997,WA,Douglas,47.735865999999994,119.69588,13.867920863015158
1997,WA,Okanogan,48.550971000000004,119.69103500000001,28.7501191998136
1997,WA,Ferry,48.437246,118.517074,21.723579464468607
1997,WA,Spokane,47.620379,117.40439199999999,22.361062972429036
1997,WA,Lincoln,47.582718,118.41766799999999,16.931681803183526
1997,WA,Adams,47.00484,118.533308,14.046559433782992
1997,WA,Whitman,46.903321999999996,117.522962,22.649917768598627
1997,WA,Walla Walla,46.254606,118.480374,17.80570096226172
1997,WA,Benton,46.228072,119.51686399999998,13.59600191379941
1997,OR,Umatilla,45.5912,118.73388,24.942796338151243
1997,OR,Union,45.304047,117.99913600000001,30.6731331601932
1997,OR,Wallowa,45.593753,117.18558,39.50493045999513
1997,OR,Baker,44.703427000000005,117.691933,23.448353840373503
1997,ID,Washington,44.448213,116.79783,27.686555946471515
1997,ID,Adams,44.884583,116.431873,41.00966323837165
1997,ID,Blaine,43.394482,113.95528999999999,38.34459103082077
1997,ID,Minidoka,42.856937,113.64001,13.787670982820822
1997,ID,Lincoln,42.986181,114.153899,17.50440700115363
1997,ID,Twin Falls,42.352309000000005,114.66563899999998,16.327489554741383
1997,ID,Ada,43.447860999999996,116.244456,15.648769009638267
1997,ID,Camas,43.463396,114.804427,37.38988229345336
1997,ID,Boise,43.987275,115.71511100000001,41.22904510156812
1997,ID,Canyon,43.623051000000004,116.708527,15.146692375052366
1997,OR,Deschutes,43.915118,121.225575,27.476514006514755
1997,OR,Crook,44.163053999999995,120.37158500000001,15.250455690411206
1997,OR,Grant,44.496326,119.01405700000001,17.7844200617282
1997,OR,Wheeler,44.736411,120.026875,17.212143049672616
1997,OR,Morrow,45.425496,119.60231100000001,19.56880342881589
1997,WA,Klickitat,45.869509,120.78011699999999,34.0912034918475
1997,OR,Gilliam,45.381665999999996,120.211851,14.769402666978802
1997,OR,Sherman,45.399215999999996,120.67851200000001,15.920907734243205
1997,OR,Wasco,45.164536,121.16506899999999,28.80569810547542
1997,OR,Jefferson,44.64379,121.183021,25.5626794078267
1997,OR,Marion,44.900898,122.57626,71.36874317521145
1997,OR,Clackamas,45.160493,122.195127,72.35017739508109
1997,OR,Linn,44.494824,122.543756,70.57039502895672
1997,OR,Coos,43.184193,124.09255700000001,74.33226753772634
1997,CA,Modoc,41.592919,120.71837,31.450632661254392
1997,OR,Jackson,42.411782,122.675797,67.2271647725299
1997,OR,Josephine,42.385382,123.597245,82.50525467406005
1997,CA,Del Norte,41.749903,123.980998,106.92601860221424
1997,OR,Curry,42.466671000000005,124.21140700000001,113.21134291206565
1997,OR,Lincoln,44.641076,123.91118300000001,105.55565669345509
1997,OR,Tillamook,45.455743,123.759327,96.47106490408346
1997,CA,Tehama,40.126156,122.232276,61.992102532436064
1997,CA,Glenn,39.602546000000004,122.4017,58.71381724621278
1997,CA,Lake,39.094802,122.746757,83.92538122007403
1997,CA,Sonoma,38.532574,122.945194,84.00242123537944
1997,CA,Colusa,39.177739,122.237563,50.61864790722723
1997,CA,Solano,38.267226,121.939594,64.55855830816789
1997,CA,Yolo,38.679268,121.903178,61.170317716458605
1997,CA,Contra Costa,37.919478999999995,121.95154299999999,55.16844369421533
1997,CA,Santa Clara,37.220777000000005,121.69062199999999,59.57774794036096
1997,CA,Stanislaus,37.562384,121.002656,31.770848714655266
1997,CA,San Benito,36.610702,121.085296,46.659255638323295
1997,CA,Merced,37.194806,120.722802,25.97204043488564
1997,CA,Mariposa,37.570034,119.91286000000001,79.88241583142586
1997,CA,Madera,37.210039,119.749852,63.00176229691918
1997,CA,Tuolumne,38.021451,119.964708,110.29030401361021
1997,NV,Lyon,39.022214,119.19741699999999,25.651966573790197
1997,NV,Douglas,38.905128999999995,119.60901899999999,54.05871549564395
1997,CA,Amador,38.44355,120.653856,80.81404571737895
1997,CA,Calaveras,38.187844,120.55511499999999,71.31541488755575
1997,CA,Placer,39.062032,120.722718,126.89519989635276
1997,CA,El Dorado,38.785532,120.534398,115.64130517420895
1997,CA,Nevada,39.295190999999996,120.77344599999999,155.0984193127963
1997,CA,Sierra,39.576925,120.521993,145.93067833255074
1997,CA,Butte,39.665959,121.601919,86.57682856147837
1997,CA,Plumas,39.99517,120.829516,104.74969044289736
1997,NV,Pershing,40.439639,118.409477,17.432374716620966
1997,NV,Churchill,39.525701,118.27041899999999,15.358911637453733
1997,ID,Cassia,42.288635,113.605498,17.587882563599383
1997,UT,Box Elder,41.476021,113.052922,22.39375387835584
1997,UT,Tooele,40.467692,113.12401499999999,20.516671753291487
1997,UT,Millard,39.09454,113.52501399999998,19.713977607968488
1997,UT,Iron,37.882727,113.29005900000001,25.622827040509144
1997,UT,Beaver,38.357535,113.238948,19.888536107994003
1997,NV,Mineral,38.516647,118.416279,25.92321458349247
1997,NV,Esmeralda,37.778966,117.632382,16.697953702042515
1997,UT,Washington,37.262531,113.4878,27.57124741293742
1997,AZ,La Paz,33.727625,114.038793,40.49328229615289
1997,CA,Imperial,33.040816,115.355395,29.511507458308863
1997,CA,San Diego,33.023604,116.776117,41.91206288566366
1997,CA,Tulare,36.230453000000004,118.780542,56.60905491366873
1997,CA,San Luis Obispo,35.385227,120.44753999999999,76.18446098636184
1997,CA,Kings,36.072478000000004,119.81553000000001,18.334979283701998
1997,LA,Lafourche,29.491993,90.394849,71.69875679858116
1997,LA,Terrebonne,29.333266,90.84419100000001,79.72010451647864
1997,LA,St. Mary,29.629348999999998,91.46380400000001,77.990424617055
1997,LA,St. Martin,30.121433000000003,91.61148100000001,75.76418971846667
1997,LA,St. Landry,30.583440999999997,91.989275,77.16907232083959
1997,MS,Yazoo,32.765675,90.387928,62.43188715516479
1997,AR,Desha,33.828748,91.244427,68.34094464050575
1997,LA,Madison,32.365823999999996,91.240729,69.39159858441452
1997,LA,Bienville,32.344268,93.061513,90.21641236060283
1997,AR,Union,33.168219,92.598145,83.34592395993567
1997,TX,Bowie,33.446051000000004,94.422375,53.14101016487419
1997,LA,Caddo,32.577195,93.882423,92.04706645161544
1997,LA,Rapides,31.193203999999998,92.535953,94.54766343377085
1997,LA,Natchitoches,31.734982000000002,93.086106,97.38584152322314
1997,LA,Calcasieu,30.229559000000002,93.35801500000001,77.07230308891917
1997,LA,Cameron,29.871989000000003,93.165437,93.71435840436723
1997,TX,Galveston,29.228706,94.894865,96.10762347986892
1997,TX,Brazoria,29.167818,95.434647,117.68953672817928
1997,TX,Bell,31.042109999999997,97.481921,97.57244539579348
1997,TX,Harris,29.857273,95.39303699999999,93.01084635089322
1997,TX,Houston,31.323036,95.4216,66.40602125027672
1997,TX,Henderson,32.211633,95.853418,72.45765407529632
1997,OK,McCurtain,34.117073,94.766086,78.05795107074934
1997,TX,Navarro,32.04845,96.476908,84.87448265160288
1997,TX,Hill,31.98224,97.129886,114.9981157020776
1997,TX,Coryell,31.391177000000003,97.798022,100.16386319871413
1997,TX,Travis,30.239513,97.69126999999999,64.34726341232798
1997,TX,Bandera,29.755747999999997,99.26068199999999,89.97420140842944
1997,TX,Edwards,29.985877000000002,100.307373,63.79280846114937
1997,TX,Webb,27.770584000000003,99.32664100000001,42.430984189803524
1997,TX,Duval,27.681123,98.497393,42.66087981503306
1997,TX,Jim Wells,27.733515999999998,98.090814,71.64821313638384
1997,TX,Nueces,27.739406,97.52164300000001,96.78344316389416
1997,AZ,Cochise,31.881793,109.75412,24.79734875684327
1997,NM,Grant,32.732087,108.381504,30.59806786295309
1997,NM,Hidalgo,31.899658000000002,108.745729,22.96257457476921
1997,NM,Luna,32.184482,107.74663899999999,24.54310735685951
1997,NM,Otero,32.588776,105.781079,19.74453527127537
1997,NM,Eddy,32.457858,104.306471,23.364230877850986
1997,TX,Culberson,31.445909000000004,104.526945,16.65361772551714
1997,TX,Hudspeth,31.450868,105.377549,14.086447576494287
1997,TX,Presidio,30.005891,104.261619,18.573164001567108
1997,TX,Jeff Davis,30.617086999999998,104.18786,19.953978250489033
1997,TX,Brewster,29.808996999999998,103.25245799999999,19.337910637643468
1997,TX,Maverick,28.745216999999997,100.311368,35.9951093841326
1997,TX,Val Verde,29.884960999999997,101.14664599999999,35.52090702044705
1997,TX,Crockett,30.717532000000002,101.404211,37.32847901714817
1997,TX,Terrell,30.232332,102.072539,31.382504664472066
1997,TX,Tom Green,31.401583000000002,100.46135500000001,55.3006518921762
1997,TX,Reeves,31.308365999999996,103.71270600000001,18.528114288045284
1997,TX,Ward,31.513069,103.105113,27.18117509364113
1997,NM,Lea,32.795687,103.413271,27.423037798512677
1997,OK,Texas,36.741964,101.488434,33.00313507346035
1997,CO,Cheyenne,38.835387,102.604585,42.58192388068544
1997,CO,Kiowa,38.388465999999994,102.75621,48.67226115928359
1997,OK,Cimarron,36.755276,102.508735,32.855063400375364
1997,CO,Baca,37.303144,102.535457,42.358224474456414
1997,NM,Colfax,36.612963,104.640126,23.092455919388488
1997,CO,Lincoln,38.99374,103.50755500000001,35.551177489687404
1997,CO,Pueblo,38.170658,104.48989300000001,30.227698328259287
1997,CO,Fremont,38.455658,105.421438,25.899475221185842
1997,CO,Saguache,38.033952,106.246675,22.595908036582927
1997,CO,Conejos,37.213407000000004,106.176447,27.763895319670066
1997,CO,Costilla,37.277547,105.42894,33.060511843720015
1997,CO,Huerfano,37.687815,104.959928,37.74874362689746
1997,NM,Taos,36.576529,105.63798700000001,18.12658273951813
1997,NM,Santa Fe,35.513721999999994,105.96644099999999,32.232114141607816
1997,NM,Mora,35.982841,104.921898,34.04234617295996
1997,NM,Union,36.488085,103.475723,29.869401635500907
1997,NM,Harding,35.863152,103.829931,25.281865248178445
1997,NM,San Miguel,35.476876000000004,104.803515,39.93703275437721
1997,NM,Guadalupe,34.869782,104.784968,36.275332421874296
1997,NM,Quay,35.107018,103.548071,47.65391279648475
1997,NM,Roosevelt,34.021457,103.482725,46.17585809706584
1997,NM,De Baca,34.351428999999996,104.401527,40.69344470093403
1997,NM,Lincoln,33.740941,105.449083,27.24920169382985
1997,NM,Torrance,34.634644,105.84683600000001,49.08965654105257
1997,NM,Sierra,33.119479,107.18816100000001,31.981224563616987
1997,NM,Socorro,33.991614,106.939003,33.395628119986696
1997,NM,Bernalillo,35.054002000000004,106.66906499999999,29.611621528040004
1997,NM,Sandoval,35.685072999999996,106.882618,19.58975057792498
1997,NM,McKinley,35.573732,108.255307,19.0640712310116
1997,NM,Catron,33.901814,108.39209699999999,25.224513655913853
1997,AZ,Greenlee,33.238872,109.242323,28.75163827778813
1997,AZ,Graham,32.931828,109.87831000000001,25.854841676744453
1997,AZ,Gila,33.789618,110.81187,48.315094305663955
1997,AZ,Pinal,32.91891,111.36725700000001,22.0659030150496
1997,AZ,Yavapai,34.630044,112.573745,41.22910931470127
1997,CO,San Miguel,38.009374,108.42732600000001,29.382495076029905
1997,CO,Dolores,37.747602,108.530383,30.52057250101085
1997,CO,Montezuma,37.338025,108.595786,26.290887596711343
1997,NM,San Juan,36.511625,108.324578,22.09083618490925
1997,CO,Archuleta,37.202395,107.05086299999999,40.90989353871192
1997,CO,La Plata,37.287366999999996,107.83971799999999,31.872068822110943
1997,CO,Gunnison,38.669678999999995,107.07810800000001,26.07178633909697
1997,CO,Pitkin,39.217533,106.915943,27.75611050668117
1997,CO,Routt,40.48316,106.985289,36.514168446485144
1997,CO,Moffat,40.573984,108.204521,25.553509312642213
1997,CO,Mesa,39.019492,108.46183700000002,26.935909790980702
1997,CO,Montrose,38.413427,108.263042,23.229283288099733
1997,UT,Grand,38.974326,109.57345,19.269448525292358
1997,UT,Emery,39.009028,110.72111100000001,17.39039567913241
1997,UT,Wayne,38.261229,110.990323,18.60258882341705
1997,UT,Sevier,38.746825,111.81193,21.16119229554712
1997,UT,Utah,40.120409,111.668667,24.038513875198927
1997,UT,Wasatch,40.334884,111.16156799999999,27.93477204463174
1997,UT,Carbon,39.67005,110.59035700000001,24.40975470539073
1997,UT,Duchesne,40.289649,110.42983000000001,24.60745130680178
1997,UT,Summit,40.87206,110.96848600000001,21.840146002116303
1997,WY,Uinta,41.284726,110.558947,14.417221916224403
1997,UT,Weber,41.270355,111.875879,31.806537088176288
1997,UT,Rich,41.627598,111.240227,26.383649355610316
1997,UT,Cache,41.734225,111.74458100000001,34.14238580352708
1997,ID,Power,42.694126000000004,112.844407,16.047977811968156
1997,ID,Bannock,42.692939,112.228986,28.55274014007945
1997,ID,Caribou,42.786273,111.544172,29.90401829231871
1997,WY,Sublette,42.767928000000005,109.91617,23.529128103617055
1997,UT,Daggett,40.890099,109.50578600000001,19.911940673510014
1997,WY,Natrona,42.973641,106.764877,18.392219010634136
1997,WY,Converse,42.972839,105.50736699999999,22.53342315418183
1997,WY,Weston,43.846213,104.57002,23.52421275272541
1997,WY,Niobrara,43.062159,104.468373,34.066884173575176
1997,WY,Goshen,42.08958,104.353482,24.443368519628137
1997,WY,Platte,42.130319,104.96080900000001,24.694412366593472
1997,WY,Albany,41.665514,105.721883,28.067125580619997
1997,CO,Larimer,40.663090999999994,105.48213100000001,45.98524400492007
1997,CO,Jackson,40.663432,106.32924799999999,34.66526261056564
1997,CO,Grand,40.123289,106.095876,28.20580354645779
1997,CO,Park,39.118914000000004,105.717648,23.36602783992949
1997,CO,El Paso,38.827383000000005,104.527472,36.42451772747662
1997,CO,Arapahoe,39.644632,104.331733,31.147794289534612
1997,CO,Adams,39.874325,104.331872,30.81177839924425
1997,CO,Elbert,39.310817,104.117928,32.973577027927355
1997,CO,Weld,40.555794,104.383649,25.67381668316121
1997,WY,Laramie,41.29283,104.660395,31.908925295716877
1997,CO,Logan,40.728091,103.090464,35.3576150078066
1997,CO,Washington,39.965413,103.20960500000001,27.518048594445144
1997,CO,Kit Carson,39.30534,102.603023,34.392915579583395
1997,CO,Yuma,40.000631,102.42264899999999,30.630681639725537
1997,NE,Garden,41.659380999999996,102.32822900000001,32.541501245295365
1997,NE,Sioux,42.483806,103.74260500000001,35.59608126793388
1997,NE,Dawes,42.711214,103.134872,28.196956602107054
1997,NE,Sheridan,42.507073999999996,102.389698,31.816976318472953
1997,SD,Fall River,43.221503999999996,103.512102,37.293387055794454
1997,SD,Custer,43.684943,103.46225,46.799688565105036
1997,SD,Bennett,43.184826,101.676426,42.060861671367604
1997,SD,Jackson,43.677294,101.626455,35.73677347227989
1997,SD,Sully,44.722325,100.131399,27.442965704540054
1997,SD,Stanley,44.415547,100.749163,30.81376112146171
1997,SD,Hyde,44.537301,99.492148,36.87354831086985
1997,SD,Lyman,43.894812,99.841925,51.15041406909678
1997,SD,Mellette,43.58493,100.760598,35.692508631376406
1997,SD,Todd,43.208172,100.71720400000001,33.584335804076424
1997,NE,Rock,42.413325,99.45853000000001,39.06138600165104
1997,NE,Brown,42.34939,99.923176,40.65453762277028
1997,SD,Tripp,43.349728999999996,99.87621899999999,45.272629149694644
1997,SD,Charles Mix,43.206185,98.59514300000001,40.66738707123517
1997,NE,Boyd,42.894448,98.773022,37.74251573277914
1997,NE,Holt,42.459286999999996,98.784766,40.021059328320646
1997,MN,Yellow Medicine,44.715736,95.862756,40.623771634914725
1997,MN,Lac qui Parle,44.999855,96.176836,36.70728298014846
1997,IA,Woodbury,42.39322,96.053296,32.01075043280876
1997,NE,Otoe,40.637992,96.131027,53.91975572155979
1997,NE,Lincoln,41.050321999999994,100.74448100000001,47.76634488367375
1997,KS,Finney,38.049855,100.739929,67.73822980207802
1997,OK,Ellis,36.224258,99.750139,64.25892097648952
1997,OK,Major,36.313119,98.542015,64.12490672930548
1997,OK,Pushmataha,34.377896,95.408085,69.35769491993484
1997,OK,Pittsburg,34.925540000000005,95.74813,50.36549984628546
1997,OK,Muskogee,35.617551,95.383911,67.90628976881942
1997,OK,Osage,36.62468,96.408385,82.26739831066152
1997,AR,Scott,34.858869,94.063641,66.76443620939924
1997,AR,Logan,35.21855,93.720563,62.944251971477954
1997,MO,Douglas,36.946517,92.51589200000001,51.19806475623514
1997,AR,Fulton,36.383443,91.819239,54.03749295998917
1997,AR,Jefferson,34.277696,91.930701,82.17598050906744
1997,AR,Independence,35.737499,91.559942,66.34045475801598
1997,AR,Poinsett,35.568981,90.680595,74.06850357952408
1997,AR,Craighead,35.828268,90.630411,65.27538546588322
1997,MO,Audrain,39.21448,91.84341500000001,57.36748676786053
1997,IL,Pike,39.625106,90.889034,44.43256731319831
1997,MO,St. Charles,38.781102000000004,90.674915,50.92761252351657
1997,IL,Schuyler,40.156905,90.61346400000001,43.81556992563509
1997,IL,Jo Daviess,42.362390999999995,90.211471,43.08930489431817
1997,IL,Rock Island,41.468404,90.572203,41.8554570947336
1997,MN,Renville,44.723696999999994,94.955617,40.82502462150338
1997,MN,Brown,44.246542,94.73364699999999,33.47663655288773
1997,MN,Nicollet,44.35882,94.245685,39.03756489776252
1997,WI,St. Croix,45.028959,92.447284,52.54987073360221
1997,WI,Pierce,44.725336999999996,92.42627900000001,42.364707109538045
1997,WI,Vernon,43.599858000000005,90.815226,48.280908734670454
1997,IA,Clayton,42.840998,91.323511,48.54090607958738
1997,WI,Grant,42.870062,90.695368,49.027815038107406
1997,WI,Marathon,44.898036,89.757823,46.61498768455735
1997,WI,Shawano,44.789640999999996,88.755813,39.474691167496424
1997,WI,Oconto,44.996575,88.20651600000001,38.54471187742296
1997,WI,Fond du Lac,43.754721999999994,88.493284,39.89351416362501
1997,WI,Sauk,43.427997999999995,89.943329,40.38230458429037
1997,WI,Columbia,43.471882,89.330472,38.152361060561645
1997,WI,Dane,43.067468,89.417852,47.775302925255296
1997,IL,Carroll,42.059084000000006,89.926485,43.77635443465728
1997,IL,Mason,40.236993,89.913575,49.284096428642854
1997,IL,McLean,40.494559,88.844539,45.85975816537177
1997,IL,Will,41.448474,87.97845600000001,45.60431216629096
1997,IL,Kankakee,41.139494,87.861125,52.36221879550132
1997,IL,Cook,41.894294,87.645455,43.231122484653426
1997,MI,Allegan,42.595788,86.634745,64.16354943105989
1997,WI,Door,45.067808,87.087936,38.13071444088881
1997,PA,Erie,42.117952,80.096386,38.43703163732343
1997,PA,Crawford,41.686840000000004,80.107811,36.31467152356519
1997,WV,Randolph,38.781087,79.867783,58.875937938552134
1997,WV,Greenbrier,37.924418,80.45059,40.64974475778849
1997,WV,Nicholas,38.291416,80.797516,51.862319673153756
1997,TN,Sullivan,36.510212,82.299397,38.2311976275969
1997,VA,Lee,36.702162,83.13033399999999,38.905226655702116
1997,NC,Swain,35.568849,83.465614,89.74551720468183
1997,AL,Jackson,34.763521999999995,85.9774,73.5784781188852
1997,IL,Shelby,39.384926,88.798862,56.74381901059486
1997,AL,Lauderdale,34.904121999999994,87.650997,97.63573391596842
1997,TN,Shelby,35.183794,89.895397,81.46411528919971
1997,AL,Franklin,34.441988,87.842815,83.65246248814364
1997,AL,Jefferson,33.553444,86.896536,58.21824992332607
1997,AL,Wilcox,31.99033,87.302205,74.15749836989048
1997,AL,Escambia,31.121747999999997,87.168429,103.57953655725998
1997,AL,Baldwin,30.659218,87.74606700000001,103.47971107712618
1997,AL,Clarke,31.685521,87.818624,64.04791279882127
1997,LA,St. Bernard,29.91811,89.263494,87.32763114806527
1997,LA,Jefferson,29.5033,90.036231,75.45956510048627
1997,LA,Plaquemines,29.402337,89.298489,101.13531311424978
1997,FL,Broward,26.19352,80.476658,62.663014656849406
1997,FL,Polk,27.953115000000004,81.69278299999999,83.11534115961483
1997,FL,Palm Beach,26.645763,80.448673,68.91757561739651
1997,FL,Martin,27.079953999999997,80.398211,53.10051307625452
1997,FL,Volusia,29.057616999999997,81.161813,58.454032642564286
1997,FL,Brevard,28.298276,80.700384,55.207469645450324
1997,FL,Lake,28.764113000000002,81.712282,65.6970885379984
1997,GA,Ware,31.050881,82.42150699999999,64.9537849543578
1997,SC,Charleston,32.800458,79.94248,65.49898811463918
1997,SC,Orangeburg,33.436135,80.802913,58.175868840470436
1997,SC,Williamsburg,33.626463,79.716475,62.786972800932396
1997,NC,Dare,35.606269,75.76753599999999,48.7992986341449
1997,NC,Carteret,34.858313,76.526967,68.83384325647319
1997,NC,Columbus,34.260471,78.63637800000001,48.91277180284988
1997,MD,Washington,39.603621000000004,77.81467099999999,85.67984043484826
1997,PA,Westmoreland,40.311068,79.466688,66.66457357826185
1997,PA,Elk,41.427334,78.653938,38.689156824844225
1997,PA,Centre,40.90916,77.84783,53.04721071648407
1997,PA,Clinton,41.245301,77.649141,39.99681875037251
1997,PA,Lycoming,41.343624,77.05525300000001,35.45375097761367
1997,NY,Lewis,43.786396999999994,75.442617,41.884388093108
1997,NY,Cayuga,43.008546,76.574587,26.01582089781983
1997,PA,Wayne,41.646589,75.292485,51.48356608028054
1997,NY,Delaware,42.193987,74.966728,42.05255470049824
1997,NY,Herkimer,43.461635,74.894694,35.40480044794982
1997,NY,Hamilton,43.657879,74.50245600000001,37.63095952432766
1997,NY,Washington,43.312377000000005,73.439428,37.57046175215385
1997,NY,Warren,43.555105,73.838139,40.7930366145256
1997,MA,Worcester,42.311693,71.940282,45.74847761886946
1997,MA,Barnstable,41.798819,70.211083,47.980570718503245
1997,ME,Knox,44.042045,69.038515,52.952137837195714
1997,ME,Lincoln,43.994265000000006,69.51402900000001,53.701173817312785
1997,ME,Waldo,44.505361,69.139678,41.81634045798708
1997,ME,Kennebec,44.417012,69.765764,43.91229247132048
1997,ME,Androscoggin,44.167681,70.207435,58.101011877615385
1997,ME,Sagadahoc,43.916694,69.843994,59.319012944047785
1997,ME,York,43.427239,70.670402,83.18339659238744
1997,NH,Carroll,43.867567,71.201665,63.25047032592829
1997,VT,Orange,44.003392,72.369687,43.21415677336396
1997,VT,Addison,44.031248,73.141581,33.30202141752645
1997,VT,Washington,44.274953000000004,72.609475,46.79936275956949
1997,VT,Lamoille,44.603504,72.638356,50.09638508647571
1997,VT,Orleans,44.828441999999995,72.25163,48.322479430683266
1997,VT,Franklin,44.858964,72.909402,41.12035139655274
1997,VT,Grand Isle,44.801788,73.300758,35.89956527256997
1997,VT,Chittenden,44.460676,73.070525,36.459234619844
1997,MI,Alpena,44.894954,83.426574,35.410720920137635
1997,MI,Montmorency,45.024134000000004,84.130107,28.925615092738038
1997,MI,Otsego,45.021794,84.57659699999999,34.82567105870769
1997,MI,Cheboygan,45.47612,84.495271,28.97071815642517
1997,MI,Luce,46.940602,85.582368,28.26876351414371
1997,MI,Emmet,45.590094,84.986822,39.14867711503752
1997,MI,Antrim,45.005457,85.175625,32.245874440677106
1997,MI,Leelanau,45.146182,86.051574,32.37480361328763
1997,MI,Baraga,46.696068,88.356022,29.3954364772817
1997,MI,Dickinson,46.012823,87.866119,38.82242870778892
1997,WI,Forest,45.666882,88.773225,36.942509690770336
1997,WI,Florence,45.849646,88.400322,39.912125052372865
1997,MI,Iron,46.170249,88.540409,37.889453024211335
1997,WI,Lincoln,45.338319,89.742082,38.672991178815664
1997,WI,Iron,46.32655,90.261299,32.89671507474899
1997,WI,Price,45.679072,90.35965,31.306258315095054
1997,WI,Sawyer,45.864913,91.14713,32.55081797302551
1997,WI,Washburn,45.892463,91.796423,42.021882972963425
1997,WI,Chippewa,45.069092,91.283505,34.576038229285345
1997,WI,Barron,45.437191999999996,91.852892,40.6339987982652
1997,MN,Carlton,46.603818,92.671044,47.52001912711362
1997,MN,Pine,46.10094,92.763094,39.67301694269045
1997,MN,Washington,45.037929,92.890117,60.15273567712409
1997,MN,Chisago,45.505444,92.903849,45.54945722077639
1997,MN,Anoka,45.27411,93.242723,60.44384632917708
1997,MN,Hennepin,45.006064,93.475185,67.51356102677697
1997,MN,Isanti,45.562431,93.296339,44.24404848478936
1997,MN,Kanabec,45.947759999999995,93.297788,30.432018815544552
1997,MN,Mille Lacs,45.929043,93.63299599999999,31.789741515639683
1997,MN,Benton,45.701227,94.00144,39.236136243015
1997,MN,Sherburne,45.443171,93.775092,52.08454787951896
1997,MN,Wright,45.175090999999995,93.966397,55.671980492351636
1997,MN,Meeker,45.123156,94.527346,51.048806040128134
1997,MN,Kandiyohi,45.152714,95.004981,40.35339819238289
1997,MN,Todd,46.066569,94.900576,33.502774319750905
1997,MN,Wadena,46.586784,94.988331,31.710038562833727
1997,MN,Crow Wing,46.491114,94.071213,41.02719398612958
1997,MN,Hubbard,47.095551,94.91329,33.0688548499964
1997,MN,Kittson,48.77604,96.780349,37.01645506928664
1997,ND,Pembina,48.766896,97.545405,40.9437086468044
1997,ND,Nelson,47.918667,98.20442800000001,31.47406716723734
1997,ND,Griggs,47.463463,98.232444,28.878062871305968
1997,ND,Steele,47.458288,97.71889499999999,26.62231103040451
1997,ND,Traill,47.446215,97.164754,36.95290744122077
1997,MN,Red Lake,47.865487,96.08718,41.637817809323785
1997,MN,Mahnomen,47.325842,95.810703,51.26746568719846
1997,MN,Norman,47.32947,96.46380699999999,52.94214093557121
1997,MN,Clay,46.898377,96.494901,31.14462038374443
1997,MN,Douglas,45.936429,95.46061,31.11542651820405
1997,MN,Pope,45.589622999999996,95.44670500000001,32.36141555282935
1997,MN,Chippewa,45.028625,95.56410799999999,33.463532555278626
1997,MN,Swift,45.27545,95.690398,32.44376070079916
1997,MN,Big Stone,45.419925,96.402226,35.057424251713186
1997,MN,Stevens,45.593461,95.992315,34.67486083364796
1997,MN,Grant,45.930743,96.010699,30.23765582397016
1997,MN,Traverse,45.76984,96.475049,30.894173062912017
1997,SD,Codington,44.966324,97.19884300000001,44.251275588646564
1997,SD,Clark,44.855211,97.724912,56.7193736348639
1997,SD,Marshall,45.737054,97.580884,27.965083384853557
1997,ND,Ransom,46.449276,97.647554,31.315232527754826
1997,ND,Sargent,46.108206,97.63003,27.106686589076386
1997,ND,McIntosh,46.117034000000004,99.44304100000001,36.806873255068176
1997,SD,Spink,44.931034000000004,98.33964399999999,35.075379210468284
1997,SD,Faulk,45.065476000000004,99.153564,31.564368344931694
1997,SD,Walworth,45.427605,100.027856,33.03078668175058
1997,SD,Campbell,45.782241,100.027951,33.29169191656358
1997,ND,Emmons,46.284255,100.237842,33.247278857050325
1997,ND,Oliver,47.118078999999994,101.33142,34.908599391724074
1997,ND,Sheridan,47.581373,100.341499,33.49098435598293
1997,ND,Wells,47.580851,99.671502,32.603467719598086
1997,ND,Foster,47.464327000000004,98.872817,33.110964548238584
1997,ND,Eddy,47.723436,98.900475,37.608345835141286
1997,ND,Pierce,48.238883,99.966497,27.09837458440636
1997,ND,Rolette,48.768271999999996,99.840463,34.96325749979804
1997,ND,Towner,48.682183,99.24815799999999,36.61818622893119
1997,ND,Renville,48.712782000000004,101.658152,25.064948393948054
1997,ND,Burke,48.786453,102.520087,47.4658308677452
1997,ND,Mountrail,48.210291,102.364756,36.985423489844585
1997,ND,Divide,48.818142,103.497653,55.4953797857753
1997,MT,Wibaux,46.962866,104.274466,45.667095083750866
1997,ND,Grant,46.357827,101.639049,36.31924459270841
1997,SD,Lawrence,44.353669000000004,103.79652800000001,38.126273013505894
1997,MT,Treasure,46.209635999999996,107.28049399999999,41.58264118721309
1997,MT,Judith Basin,47.032558,110.30532,30.149669198252397
1997,MT,Wheatland,46.497046999999995,109.857147,28.919731479035715
1997,ID,Teton,43.760994000000004,111.21176499999999,20.528875362862863
1997,ID,Jefferson,43.796965,112.31858799999999,11.863578345612538
1997,ID,Madison,43.789709,111.65655,13.931399154656015
1997,MT,Silver Bow,45.895959000000005,112.66022199999999,21.508955008017203
1997,ID,Benewah,47.218451,116.633541,34.17457596731537
1997,ID,Boundary,48.773065,116.524619,42.6862457554977
1997,WA,Island,48.158436,122.670503,21.503983208838054
1997,WA,Kitsap,47.639687,122.64963600000002,55.05301470644603
1997,WA,Thurston,46.932598,122.82944099999999,60.79769901025414
1997,WA,Mason,47.354126,123.17385,115.41619529752212
1997,WA,Pacific,46.556587,123.78241899999999,108.54495514350307
1997,WA,Cowlitz,46.185922999999995,122.65868200000001,93.95583742871031
1997,OR,Clatsop,46.024509,123.70501399999999,99.14749614532192
1997,OR,Columbia,45.941932,123.081079,60.36648576766074
1997,OR,Washington,45.553542,123.09761499999999,58.67272305319179
1997,OR,Yamhill,45.248138,123.31611699999999,62.13921650499052
1997,OR,Multnomah,45.547693,122.41717299999999,64.10049795453624
1997,WA,Clark,45.771674,122.48590300000001,78.31043234606564
1997,ID,Latah,46.81892,116.730974,33.39661170047128
1997,ID,Nez Perce,46.333766,116.760903,32.22367143988988
1997,ID,Lewis,46.236328,116.42376000000002,39.85175797916397
1997,WA,Asotin,46.181861,117.22778100000001,23.460414542437487
1997,WA,Garfield,46.429474,117.53671499999999,25.591539813629065
1997,WA,Columbia,46.292851,117.911635,34.746688597311895
1997,ID,Jerome,42.691171999999995,114.26300900000001,15.212911582592412
1997,ID,Gooding,42.973185,114.82141999999999,14.75730288241756
1997,ID,Gem,44.061473,116.398784,23.236620372604627
1997,ID,Payette,44.00274,116.748655,17.93327406436311
1997,OR,Hood River,45.511775,121.655976,83.48496330397973
1997,OR,Benton,44.490623,123.426317,60.92709029632656
1997,OR,Polk,44.904395,123.397329,74.75304363408773
1997,CA,Napa,38.507351,122.32599499999999,96.98184485713215
1997,CA,Marin,38.051817,122.745974,80.29079959539966
1997,CA,Santa Cruz,37.012488,122.007205,82.44599749526935
1997,CA,San Mateo,37.414664,122.37154199999999,73.0875965574192
1997,CA,Alameda,37.648081,121.91330400000001,48.51463361695817
1997,CA,San Joaquin,37.935034,121.27223700000002,34.1396197940959
1997,CA,Alpine,38.61761,119.798999,103.84686130244243
1997,CA,Sacramento,38.450010999999996,121.340441,52.644709587406005
1997,CA,Yuba,39.270026,121.34428,90.57708443142376
1997,CA,Sutter,39.035257,121.702758,55.77414522176901
1997,CA,Orange,33.675686999999996,117.777207,71.62099426442599
1997,LA,St. Charles,29.913833,90.359314,75.79430083802113
1997,LA,Assumption,29.899884000000004,91.050528,83.55783387909466
1997,LA,Vermilion,29.786872,92.29009,94.54349035828743
1997,LA,Iberia,29.606013,91.842706,75.16543380329087
1997,LA,Iberville,30.288394,91.36315,74.02813097564041
1997,LA,Pointe Coupee,30.708319,91.604621,70.69555241017217
1997,LA,Acadia,30.291496999999996,92.411037,84.98250438153846
1997,LA,Avoyelles,31.085094,91.993798,81.52548089620383
1997,LA,Catahoula,31.666517,91.846703,93.56152616216244
1997,LA,Concordia,31.469806,91.62631400000001,93.77428781996107
1997,LA,West Feliciana,30.872701,91.421008,77.83771285575115
1997,MS,Adams,31.486218,91.351781,93.12722597785782
1997,MS,Wilkinson,31.160249,91.325567,81.16118025176344
1997,MS,Franklin,31.477797999999996,90.895884,85.46642029622453
1997,MS,Amite,31.203933000000003,90.795542,86.92006679565439
1997,LA,East Feliciana,30.839784,91.04343399999999,71.4522917048496
1997,LA,East Baton Rouge,30.544002000000003,91.093174,68.59568062325559
1997,LA,Ascension,30.202946,90.910023,67.36432936479247
1997,LA,Livingston,30.440419,90.727474,76.55696474538489
1997,LA,St. Helena,30.821423,90.70935,73.35714461035565
1997,LA,St. John the Baptist,30.117471000000002,90.504677,72.16589180194674
1997,LA,Tangipahoa,30.621581,90.406633,71.832252310591
1997,LA,Washington,30.852144,90.04625300000001,72.11338349965719
1997,MS,Lincoln,31.535216,90.45356600000001,85.48387657792786
1997,MS,Copiah,31.866915000000002,90.448758,90.16191873758808
1997,MS,Jefferson,31.733633,91.043878,92.03921383683391
1997,MS,Claiborne,31.97281,90.915424,82.82680800083808
1997,MS,Warren,32.357005,90.851791,69.3600437837251
1997,MS,Issaquena,32.754977000000004,90.988552,63.31945201995672
1997,MS,Sharkey,32.89249,90.827388,57.939073296189264
1997,MS,Hinds,32.267924,90.4659,73.24722913939556
1997,MS,Madison,32.634370000000004,90.03416,65.35476399424864
1997,MS,Holmes,33.125941999999995,90.091197,61.80044798593213
1997,MS,Leflore,33.54979,90.294934,74.20958881797551
1997,MS,Tallahatchie,33.955890999999994,90.172833,60.149625249723975
1997,MS,Quitman,34.25264,90.290525,83.61415847642637
1997,MS,Coahoma,34.22867,90.603165,70.7681097454024
1997,AR,Phillips,34.425841999999996,90.848386,78.12326359899083
1997,MS,Bolivar,33.799278,90.884476,55.4546744830326
1997,MS,Sunflower,33.605529,90.59509,61.53464278253885
1997,MS,Washington,33.273131,90.94443000000001,61.091182452851655
1997,AR,Chicot,33.267139,91.297158,64.41945512728068
1997,AR,Drew,33.587241999999996,91.722778,72.11578607907997
1997,AR,Arkansas,34.289574,91.376547,91.04343154716486
1997,AR,Lincoln,33.957665000000006,91.727624,89.19454099233938
1997,AR,Cleveland,33.893201,92.188714,71.36590370361394
1997,AR,Bradley,33.463819,92.168164,78.74548494229137
1997,LA,Union,32.829349,92.37565,70.81358179925654
1997,LA,Ouachita,32.477495000000005,92.154798,72.15358192958385
1997,AR,Ashley,33.190835,91.772267,64.06673058476406
1997,LA,East Carroll,32.73017,91.23414100000001,63.515642246494366
1997,LA,Morehouse,32.820008,91.800399,69.22990980895409
1997,LA,Franklin,32.138279,91.672101,85.62895361916628
1997,LA,Richland,32.418121,91.758375,75.266720999302
1997,LA,Tensas,32.001489,91.342576,90.59513398578974
1997,LA,Caldwell,32.101244,92.11418,85.77108256653206
1997,LA,Winn,31.941187,92.641269,90.14441844616518
1997,LA,De Soto,32.059248,93.740797,94.8536902923272
1997,LA,Red River,32.101213,93.34905,97.18326170671673
1997,LA,Bossier,32.696202,93.617977,80.85085622296413
1997,LA,Webster,32.732152,93.339825,81.26343595951187
1997,LA,Claiborne,32.827585,92.991125,82.96259509325566
1997,LA,Jackson,32.30448,92.55667199999999,83.60902251082378
1997,LA,Lincoln,32.601147999999995,92.662082,75.0939231841582
1997,AR,Ouachita,33.591158,92.87841800000001,64.77589414646621
1997,AR,Calhoun,33.56046,92.513879,77.11115916032216
1997,AR,Grant,34.288063,92.42398399999999,63.37149621776004
1997,AR,Dallas,33.967822999999996,92.653999,60.72207467247016
1997,AR,Clark,34.053312,93.17620500000001,60.64725077776146
1997,AR,Pike,34.158190999999995,93.658659,74.6739751957531
1997,AR,Nevada,33.666699,93.305072,55.40367162871386
1997,AR,Columbia,33.215070000000004,93.226901,71.47310460116753
1997,AR,Lafayette,33.24066,93.611643,57.08041758081807
1997,AR,Miller,33.305505,93.90150899999999,59.52524783882747
1997,AR,Hempstead,33.728611,93.665809,50.308524594392345
1997,AR,Sevier,33.994608,94.24329,74.93058637554947
1997,AR,Howard,34.083179,93.990988,77.25401934102693
1997,AR,Little River,33.699496999999994,94.229774,54.33398111965294
1997,TX,Morris,33.116465999999996,94.73126500000001,52.27460052472345
1997,TX,Camp,32.974581,94.979085,52.50171939788326
1997,TX,Upshur,32.735878,94.941649,55.84037764824088
1997,TX,Cass,33.083698,94.357579,55.79742422243435
1997,TX,Marion,32.797757,94.35767299999999,69.46798450080522
1997,TX,Harrison,32.547993,94.374425,87.72020811514794
1997,TX,Panola,32.163978,94.30515600000001,104.74307602116112
1997,TX,Shelby,31.790136999999998,94.142565,99.43949908385343
1997,TX,Rusk,32.109423,94.75638199999999,96.4255397757718
1997,TX,Nacogdoches,31.620559999999998,94.62025,91.52926612278442
1997,TX,Angelina,31.251951000000002,94.611056,92.87970897757872
1997,TX,Polk,30.784553000000002,94.837338,80.10965996626197
1997,TX,Liberty,30.162189,94.822682,72.3439664996164
1997,TX,Hardin,30.329612,94.393149,72.70339407824939
1997,TX,Jasper,30.752932,94.02229399999999,84.47479711694001
1997,TX,Tyler,30.769578999999997,94.379449,85.37113165467821
1997,TX,San Augustine,31.382448999999998,94.16318000000001,98.52601980021507
1997,TX,Sabine,31.3433,93.851913,100.01865346491863
1997,LA,Sabine,31.560209000000004,93.559228,94.977863622705
1997,LA,Vernon,31.110563,93.18151999999999,95.19389275252855
1997,LA,Grant,31.597787,92.561716,93.47642331095163
1997,LA,Allen,30.652744000000002,92.81960500000001,82.20893229980767
1997,LA,Evangeline,30.720693,92.40408599999999,89.17448559567684
1997,LA,Beauregard,30.645018,93.340253,81.13712421922345
1997,TX,Newton,30.786718,93.73925,86.25467769601599
1997,LA,Jefferson Davis,30.269529,92.816221,83.29097706053201
1997,TX,Orange,30.120918,93.89335799999999,74.41025197769358
1997,TX,Jefferson,29.854,94.149331,81.90947964055553
1997,TX,Chambers,29.703933000000003,94.668875,97.68319034352966
1997,TX,Fort Bend,29.526602,95.771015,122.36358014335823
1997,TX,Austin,29.891901,96.27017,82.67092603756997
1997,TX,Wharton,29.278481,96.229675,105.26760643703872
1997,TX,Matagorda,28.783340999999997,95.997755,119.2989388014786
1997,TX,Jackson,28.959802000000003,96.58908000000001,71.9270814242284
1997,TX,Victoria,28.79637,96.971198,66.02754981273905
1997,TX,Goliad,28.6607,97.430415,63.49780403016018
1997,TX,DeWitt,29.082341999999997,97.36165600000001,69.28066827344304
1997,TX,Gonzales,29.468704,97.477738,67.91082086683717
1997,TX,Lavaca,29.382578000000002,96.923633,70.49946111458306
1997,TX,Colorado,29.595908,96.50838900000001,72.19450154772528
1997,TX,Washington,30.215075,96.41027199999999,61.2664147841024
1997,TX,Burleson,30.493487,96.622091,53.73373497067436
1997,TX,Fayette,29.877886,96.921231,60.60542731748568
1997,TX,Lee,30.321105,96.976365,54.91471542362909
1997,TX,Bastrop,30.103128,97.311859,57.048200550707605
1997,TX,Caldwell,29.840421999999997,97.631097,59.81843824954024
1997,TX,Williamson,30.64903,97.605069,79.51125159137244
1997,TX,Falls,31.251929999999998,96.934128,88.35105362577445
1997,TX,Milam,30.791241999999997,96.98439499999999,60.27113757258065
1997,TX,Robertson,31.025481,96.51494100000001,68.36991574289007
1997,TX,Leon,31.300493,95.995622,75.60918588891873
1997,TX,Madison,30.966878,95.93037199999999,61.21574282030252
1997,TX,Brazos,30.656725,96.302389,54.140002333377744
1997,TX,Waller,30.013578000000003,95.982102,87.93699153042125
1997,TX,Grimes,30.543231,95.98808199999999,59.948831987622356
1997,TX,Montgomery,30.302364,95.503523,70.23235624419242
1997,TX,San Jacinto,30.574218,95.162852,68.21008837425742
1997,TX,Walker,30.743090000000002,95.569888,61.33326441158783
1997,TX,Trinity,31.087483000000002,95.15329100000001,72.7836640008765
1997,TX,Cherokee,31.843859000000002,95.156504,82.33543773375565
1997,TX,Anderson,31.841265999999997,95.661744,71.26316135167454
1997,TX,Freestone,31.701653999999998,96.144237,77.59237586963681
1997,TX,Van Zandt,32.558948,95.836391,72.56715956633826
1997,TX,Smith,32.377093,95.26963,76.68001689411265
1997,TX,Wood,32.783588,95.382166,66.43405734805212
1997,TX,Franklin,33.175846,95.219066,56.79238552728549
1997,TX,Titus,33.214599,94.96678299999999,54.9254883610819
1997,TX,Hopkins,33.148959000000005,95.56519399999999,71.2062687636429
1997,TX,Delta,33.385933,95.67335,75.34242883693544
1997,TX,Red River,33.619626000000004,95.048429,61.209760313687184
1997,TX,Lamar,33.667263,95.570348,72.46451014213221
1997,OK,Choctaw,34.027645,95.554208,75.10667857544983
1997,OK,Bryan,33.964003999999996,96.264137,63.98098518365385
1997,TX,Fannin,33.591161,96.104988,79.50737860815967
1997,TX,Hunt,33.123438,96.083807,84.40379557042276
1997,TX,Collin,33.193884999999995,96.578153,79.71777112704291
1997,TX,Grayson,33.624508,96.675699,63.03789388687197
1997,OK,Marshall,34.027007,96.770533,56.39201373594384
1997,TX,Cooke,33.639169,97.21037199999999,65.24539887687702
1997,OK,Love,33.957775,97.245124,61.11356705153551
1997,TX,Denton,33.205005,97.119046,63.976000670637504
1997,TX,Wise,33.219095,97.653997,65.21543994904485
1997,TX,Johnson,32.379511,97.364823,79.47990171126963
1997,TX,Tarrant,32.772040000000004,97.291291,73.22975833269275
1997,TX,Dallas,32.766987,96.778424,83.70124078169962
1997,TX,Ellis,32.347279,96.79833599999999,99.66113423897256
1997,TX,Kaufman,32.598944,96.28837800000001,72.0880894268598
1997,TX,Limestone,31.547543,96.593623,91.1807260999945
1997,TX,McLennan,31.549493,97.201472,102.32920098815495
1997,TX,Bosque,31.900764000000002,97.637632,91.11984337255316
1997,TX,Hamilton,31.706982,98.11179399999999,72.4503763785242
1997,TX,Mills,31.494889,98.594623,80.10266416343934
1997,TX,Brown,31.764103000000002,98.99847,90.06443135696148
1997,TX,Comanche,31.951645000000003,98.549617,76.12029402924983
1997,TX,Eastland,32.324645000000004,98.83655999999999,63.08150168451714
1997,TX,Erath,32.238136,98.22237700000001,70.47054587911809
1997,TX,Parker,32.777096,97.80590500000001,79.6390068785198
1997,TX,Palo Pinto,32.75221,98.31797399999999,56.987466345154466
1997,TX,Jack,33.232277,98.171902,49.12430560936189
1997,TX,Montague,33.676289000000004,97.724747,54.499768252750854
1997,OK,Jefferson,34.105092,97.838814,47.08935009626955
1997,TX,Clay,33.785903999999995,98.212918,51.68442502926881
1997,TX,Archer,33.616305,98.687267,45.054121391484344
1997,TX,Wichita,33.991103,98.716851,56.354785128448206
1997,TX,Young,33.158787,98.678267,46.18477198629207
1997,TX,Stephens,32.731531,98.84008100000001,52.24606087011553
1997,TX,Haskell,33.175965000000005,99.730773,53.91465336394068
1997,TX,Throckmorton,33.170712,99.206137,44.39663651156032
1997,TX,Baylor,33.618171999999994,99.19722800000001,51.53728328405326
1997,TX,Foard,33.980404,99.777427,74.00853833540741
1997,TX,Knox,33.616657000000004,99.747112,67.21061482022472
1997,TX,King,33.614159,100.250548,66.7652416513241
1997,TX,Stonewall,33.17958,100.253807,67.37064514938322
1997,TX,Fisher,32.740473,100.40312,64.55102215489947
1997,TX,Nolan,32.312338000000004,100.41810799999999,56.9548473602861
1997,TX,Jones,32.743709,99.87443,46.440127913645256
1997,TX,Shackelford,32.743788,99.347045,46.60451106987778
1997,TX,Callahan,32.29315,99.372249,53.78157313228635
1997,TX,Taylor,32.295684,99.89322,47.67053773669958
1997,TX,Coleman,31.914205,99.346622,67.11453303905634
1997,TX,Runnels,31.833311,99.96785600000001,48.233977541280495
1997,TX,Coke,31.877105,100.63523599999999,53.737830738092526
1997,TX,Schleicher,30.896233000000002,100.52721600000001,58.91411418699046
1997,TX,Sutton,30.517865000000004,100.505395,50.17006467720739
1997,TX,Kerr,30.053928000000003,99.351968,89.15113742002718
1997,TX,Kimble,30.479471999999998,99.74639599999999,78.76833848530717
1997,TX,Menard,30.883707,99.854936,52.34959789492133
1997,TX,Concho,31.318865000000002,99.863648,48.73312167763262
1997,TX,McCulloch,31.205477000000002,99.35985600000001,73.4560078372275
1997,TX,Mason,30.703232,99.237608,100.74531533010773
1997,TX,San Saba,31.155138,98.819292,92.33078973854354
1997,TX,Lampasas,31.196731,98.240889,76.45361147126191
1997,TX,Burnet,30.789616,98.201195,91.67821743136378
1997,TX,Hays,30.061225,98.029267,85.17271008807529
1997,TX,Blanco,30.265604999999997,98.399977,78.62346254909826
1997,TX,Llano,30.707584999999998,98.68469,82.68223757070344
1997,TX,Gillespie,30.326390000000004,98.94210600000001,92.95788175820415
1997,TX,Medina,29.353661,99.111085,86.16195624152823
1997,TX,Kendall,29.944523999999998,98.71109399999999,106.4929610077289
1997,TX,Comal,29.803019,98.255201,99.87048617968092
1997,TX,Guadalupe,29.583208000000003,97.949027,76.68787992924676
1997,TX,Bexar,29.448671,98.520147,81.47783562210894
1997,TX,Atascosa,28.894296,98.528187,64.83450863410313
1997,TX,Wilson,29.174303000000002,98.085899,70.21516581854492
1997,TX,Karnes,28.907618,97.86076700000001,70.82647815949848
1997,TX,Frio,28.869334000000002,99.108788,55.09550424557935
1997,TX,Zavala,28.864652000000003,99.75983000000001,42.69566926431651
1997,TX,Uvalde,29.350340000000003,99.761074,67.18390569166093
1997,TX,Kinney,29.347087,100.4177,36.68893726299497
1997,TX,Dimmit,28.423587,99.76587099999999,49.196529570061166
1997,TX,Starr,26.546335,98.71580300000001,50.93736323696647
1997,TX,Hidalgo,26.396384,98.18099000000001,49.95204605360887
1997,TX,Brooks,27.034994,98.215276,46.951307403842975
1997,TX,Jim Hogg,27.041211999999998,98.700127,36.59582291881704
1997,TX,Zapata,26.996980999999998,99.182603,35.44588963858936
1997,TX,La Salle,28.351097999999997,99.096774,51.51053473589562
1997,TX,McMullen,28.384921999999996,98.57885300000001,56.320889816230824
1997,TX,Live Oak,28.351535,98.126961,65.24237277370347
1997,TX,Bee,28.416077,97.742586,72.0875898458486
1997,TX,Refugio,28.312496000000003,97.16047900000001,80.94872395591383
1997,TX,San Patricio,28.011782,97.517165,85.93328618114992
1997,TX,Kleberg,27.438734999999998,97.66062,109.55006751019049
1997,TX,Aransas,28.104225,96.977983,86.8811393865762
1997,TX,Calhoun,28.445365999999996,96.5833,86.04770478882044
1997,TX,Kenedy,26.890232,97.591233,89.16895757486759
1997,TX,Willacy,26.481091999999997,97.584224,84.97842165160854
1997,TX,Cameron,26.102923,97.47895799999999,86.03582501867659
1997,AZ,Santa Cruz,31.525903999999997,110.84518999999999,27.388606354021782
1997,TX,Loving,31.844935999999997,103.561229,18.80079109595653
1997,TX,El Paso,31.766403000000004,106.241391,20.951620746128064
1997,TX,Irion,31.303424,100.98130400000001,62.62455155326503
1997,TX,Sterling,31.835774,101.054911,51.62183951174956
1997,TX,Mitchell,32.303781,100.92458,53.11317463652125
1997,TX,Martin,32.30983,101.961836,36.68468235268471
1997,TX,Glasscock,31.868591,101.528971,37.78174530376088
1997,TX,Reagan,31.372895,101.513901,47.81969622385967
1997,TX,Upton,31.353849,102.042013,40.361363493691314
1997,TX,Crane,31.422796999999996,102.487774,37.477761091155145
1997,TX,Winkler,31.831415999999997,103.055986,26.75887619962557
1997,TX,Andrews,32.312258,102.640206,36.480047284404
1997,TX,Ector,31.865301000000002,102.542507,38.878305885959726
1997,TX,Midland,31.870896000000002,102.024326,36.70703039811849
1997,TX,Gaines,32.743942,102.631562,37.92762787572449
1997,TX,Cochran,33.60844,102.830449,36.469108447228244
1997,TX,Yoakum,33.172397,102.823771,42.48275221066222
1997,TX,Terry,33.171229,102.33928399999999,43.70725476752653
1997,TX,Lubbock,33.611469,101.81994399999999,37.03516326191247
1997,TX,Lynn,33.178412,101.818493,42.59838920229709
1997,TX,Dawson,32.741934,101.947322,38.46822831351334
1997,TX,Borden,32.744062,101.433033,47.09330073578538
1997,TX,Scurry,32.744462,100.913399,60.92444234458014
1997,TX,Kent,33.184779999999996,100.76971999999999,60.365216399621715
1997,TX,Garza,33.183792,101.30113399999999,45.72214857202074
1997,TX,Crosby,33.609144,101.29871,48.42841175396314
1997,TX,Dickens,33.614666,100.78609499999999,55.24867060846685
1997,TX,Motley,34.058383,100.793696,60.9955818806404
1997,TX,Briscoe,34.525172999999995,101.205893,51.0881743859671
1997,TX,Donley,34.955036,100.815846,53.361917491585544
1997,TX,Armstrong,34.964179,101.356636,42.23467708380164
1997,TX,Randall,34.962528999999996,101.895547,39.09999070420577
1997,TX,Swisher,34.53046,101.73285200000001,37.847619683837024
1997,TX,Floyd,34.073731,101.303274,50.32829784734235
1997,TX,Hale,34.068436,101.822888,37.110424256891996
1997,TX,Lamb,34.068862,102.34801800000001,33.43325587824771
1997,TX,Bailey,34.067521,102.830345,35.775792780060065
1997,NM,Curry,34.572984000000005,103.346055,56.922724704253646
1997,TX,Deaf Smith,34.940765999999996,102.607564,52.54523350770816
1997,TX,Parmer,34.532163,102.784853,48.2190616920979
1997,TX,Castro,34.533621000000004,102.258786,41.03405982777547
1997,TX,Hartley,35.840244,102.610047,36.600595866293524
1997,TX,Oldham,35.401921,102.59761999999999,41.71819603835469
1997,TX,Dallam,36.28637,102.59402,29.872058891120915
1997,TX,Sherman,36.277628,101.894716,36.10730818936386
1997,TX,Moore,35.835676,101.890502,44.31792364212014
1997,TX,Potter,35.398675,101.893804,47.15314598746786
1997,TX,Hutchinson,35.837047,101.362746,53.67914484320635
1997,TX,Carson,35.405496,101.355356,54.27967417710347
1997,TX,Gray,35.402542,100.812374,64.86663230540037
1997,TX,Roberts,35.836216,100.80755500000001,67.41250743249533
1997,TX,Ochiltree,36.278744,100.815864,54.53941833101121
1997,TX,Hansford,36.272847,101.35693,42.06000914648736
1997,KS,Stevens,37.202356,101.31579599999999,31.485924878089648
1997,KS,Morton,37.18525,101.809516,33.845851432707356
1997,KS,Stanton,37.565932000000004,101.789383,39.347951814972575
1997,KS,Hamilton,37.995244,101.793689,46.0054919553559
1997,KS,Kearny,37.994461,101.308136,57.06876826939908
1997,KS,Grant,37.547537,101.299362,45.44789788125246
1997,KS,Scott,38.481877000000004,100.90635999999999,68.03268778929296
1997,KS,Thomas,39.357706,101.083439,34.688356936495516
1997,KS,Logan,38.913270000000004,101.15740699999999,43.63905843050794
1997,KS,Wallace,38.926626,101.771103,35.467852273330564
1997,KS,Greeley,38.480408000000004,101.805984,45.024870434820926
1997,KS,Wichita,38.481922,101.34743399999999,55.17022167817479
1997,CO,Bent,37.931891,103.077584,33.20356761609426
1997,CO,Prowers,37.958181,102.392161,43.39901684587201
1997,CO,Otero,37.884170000000005,103.72126,28.302601729110044
1997,CO,Crowley,38.321956,103.787562,38.27177510730339
1997,CO,Custer,38.101994,105.373515,40.653834138908074
1997,CO,Teller,38.871994,105.182552,30.885010856689238
1997,CO,Chaffee,38.738246000000004,106.31697199999999,23.601042609090708
1997,CO,Rio Grande,37.485763,106.45321399999999,27.58481489943533
1997,CO,Alamosa,37.568442,105.78804099999999,24.948238192236285
1997,NM,Valencia,34.716840000000005,106.806582,30.03204693971789
1997,CO,Mineral,37.651478000000004,106.9323,44.28987086751678
1997,CO,Hinsdale,37.811625,107.38340500000001,36.261193723040044
1997,CO,San Juan,37.781075,107.670257,41.43872829162268
1997,CO,Ouray,38.1506,107.767133,26.13782549841228
1997,CO,Delta,38.861756,107.86475700000001,27.6660407600742
1997,CO,Eagle,39.630638,106.692944,21.31207574982469
1997,UT,Piute,38.335881,112.12937600000001,21.106849906200512
1997,UT,Sanpete,39.380588,111.570451,23.49188329562873
1997,UT,Morgan,41.091027000000004,111.57788500000001,30.136106050896462
1997,UT,Salt Lake,40.667882,111.92424399999999,31.159961881292272
1997,UT,Davis,41.037045,112.202123,29.011417220049328
1997,ID,Bear Lake,42.285833000000004,111.327445,28.64640436914417
1997,ID,Franklin,42.173589,111.82295500000001,43.25916006097689
1997,ID,Oneida,42.183890000000005,112.52046499999999,27.100456685220703
1997,NE,Scotts Bluff,41.851589000000004,103.70586,29.524206789508327
1997,CO,Summit,39.621023,106.137555,26.527500622687946
1997,CO,Lake,39.204316,106.349696,17.377041549384803
1997,CO,Jefferson,39.586459999999995,105.24560100000001,42.06344676195468
1997,CO,Clear Creek,39.689403000000006,105.670791,42.233940358940956
1997,CO,Boulder,40.094826,105.39838200000001,59.16566311776489
1997,CO,Denver,39.761849,104.880625,39.553860248681175
1997,CO,Douglas,39.326435,104.926199,37.0652147356
1997,CO,Morgan,40.262353999999995,103.807092,25.85925731582623
1997,NE,Kimball,41.199155,103.711105,32.90082037579421
1997,NE,Banner,41.53975,103.726263,28.33248721466741
1997,NE,Morrill,41.732205,102.990599,31.37608512388588
1997,NE,Deuel,41.112988,102.332604,32.414099354112984
1997,CO,Sedgwick,40.871567999999996,102.355358,32.636860069432856
1997,NE,Cheyenne,41.214236,103.01192900000001,31.916281238961663
1997,CO,Phillips,40.594712,102.345105,31.419419812204715
1997,NE,Chase,40.530390000000004,101.694192,32.39588409941813
1997,NE,Dundy,40.180165,101.681133,27.79908183924995
1997,KS,Sherman,39.351352,101.719859,30.804931683519047
1997,KS,Cheyenne,39.789256,101.72730200000001,27.460539412863913
1997,KS,Rawlins,39.786198,101.076738,39.833961958962696
1997,NE,Hitchcock,40.176896,101.044217,41.70442684984573
1997,NE,Hayes,40.535786,101.05558,45.922627764444044
1997,NE,Perkins,40.856065,101.636443,34.201013209853514
1997,NE,Keith,41.194404,101.644474,36.80379059310413
1997,NE,Arthur,41.570856,101.69704499999999,36.54524952280102
1997,NE,McPherson,41.596472999999996,101.060237,46.09881681060791
1997,NE,Hooker,41.9187,101.11681,38.59200192230278
1997,NE,Grant,41.915867,101.756875,35.807686181708924
1997,NE,Box Butte,42.215665,103.08782099999999,28.96029416001558
1997,SD,Haakon,44.284312,101.59179,27.971228019014106
1997,SD,Jones,43.95199,100.686139,41.073387701380156
1997,SD,Hughes,44.392258,99.985846,34.425727394824925
1997,SD,Buffalo,44.044306,99.203998,46.57394631811491
1997,NE,Keya Paha,42.875479999999996,99.718351,39.527638294189956
1997,SD,Gregory,43.179094,99.202158,42.11590258617086
1997,NE,Knox,42.634405,97.891349,38.790541603312285
1997,SD,Bon Homme,42.986031,97.885613,34.29392953696908
1997,SD,Douglas,43.391506,98.35843299999999,38.913177673625796
1997,SD,Davison,43.680439,98.155868,34.32502378632457
1997,SD,Brule,43.72988,99.092941,47.66276190223858
1997,SD,Aurora,43.724719,98.577587,42.11307071127222
1997,SD,Jerauld,44.063416,98.623188,47.09760544301258
1997,SD,Hand,44.546713000000004,99.004575,39.8860920072288
1997,SD,Beadle,44.418265000000005,98.279422,40.22868890233518
1997,SD,Sanborn,44.021032,98.092105,39.35600449828508
1997,SD,Hamlin,44.680619,97.178598,62.73613111711703
1997,SD,Kingsbury,44.362969,97.499313,46.430940025404645
1997,SD,Miner,44.017327,97.60979,38.013250270651305
1997,SD,Hanson,43.680611999999996,97.79684499999999,37.770242840688894
1997,SD,McCook,43.678924,97.362036,34.0701469254138
1997,SD,Lake,44.02845,97.123223,32.81395377152608
1997,SD,Moody,44.012429,96.67605400000001,30.768006619212517
1997,SD,Brookings,44.376675,96.797797,37.953961889416455
1997,SD,Deuel,44.75629,96.690239,47.206790071536616
1997,MN,Lincoln,44.408238,96.272032,42.36986729841485
1997,MN,Lyon,44.409195000000004,95.847268,43.13206794157082
1997,MN,Redwood,44.403535999999995,95.254242,42.48402976261836
1997,MN,Cottonwood,44.010711,95.18313,41.59652288954902
1997,MN,Murray,44.015594,95.761581,46.9363600207584
1997,MN,Pipestone,44.015361,96.257015,42.478282183744994
1997,MN,Rock,43.669587,96.263238,49.235657808862896
1997,IA,Lyon,43.38358,96.207201,35.758552996205296
1997,MN,Nobles,43.677686,95.763132,43.589764147315705
1997,MN,Jackson,43.673025,95.149704,37.723533838212816
1997,IA,Osceola,43.378541999999996,95.633788,37.0779487785679
1997,IA,O'Brien,43.083746000000005,95.625624,39.14415311437614
1997,IA,Cherokee,42.742738,95.633262,35.666578212881845
1997,IA,Sioux,43.082854,96.177929,37.03334840635562
1997,IA,Plymouth,42.737584999999996,96.215864,33.54859755952093
1997,NE,Dixon,42.485279999999996,96.855862,37.8347710192126
1997,SD,Union,42.831106,96.650829,34.056044786717266
1997,SD,Minnehaha,43.667472,96.795726,38.9764691261332
1997,SD,Lincoln,43.27942,96.722286,34.41162280673364
1997,SD,Turner,43.30867,97.150185,31.92906178247487
1997,SD,Hutchinson,43.33671,97.749383,37.3082961005626
1997,SD,Yankton,43.006607,97.388339,36.33795309162983
1997,NE,Cedar,42.604510999999995,97.256824,42.404071222412476
1997,NE,Pierce,42.271413,97.61099200000001,41.54610535549651
1997,NE,Madison,41.909929,97.60685600000001,44.18403650591559
1997,NE,Platte,41.576865999999995,97.513467,45.382360446739796
1997,NE,Polk,41.187925,97.570663,43.7577820327101
1997,NE,Colfax,41.574675,97.089455,51.825033295983104
1997,NE,Butler,41.226071999999995,97.13204,47.36288141218096
1997,NE,Saunders,41.223152,96.640923,49.893186866924886
1997,NE,Dodge,41.577008,96.645853,57.70086070324578
1997,NE,Wayne,42.210746,97.126243,40.86889618656185
1997,NE,Thurston,42.154061,96.53394300000001,33.12083702595613
1997,NE,Cuming,41.915865000000004,96.788517,49.18582560685745
1997,IA,Monona,42.049432,95.95656600000001,38.010730815652906
1997,IA,Ida,42.39186,95.507421,31.569971253183926
1997,IA,Crawford,42.043119,95.38909,42.517494563098175
1997,IA,Shelby,41.679014,95.30891700000001,44.06174612142884
1997,IA,Pottawattamie,41.340184,95.544905,51.575418827216225
1997,IA,Harrison,41.688584000000006,95.827149,42.16137521643903
1997,NE,Burt,41.854178999999995,96.337746,49.198850696675656
1997,NE,Douglas,41.297090999999995,96.154066,58.995238662997124
1997,NE,Washington,41.533978999999995,96.224574,56.605823951274004
1997,NE,Cass,40.909878000000006,96.140609,55.319233169207536
1997,NE,Sarpy,41.115064000000004,96.109125,58.155448696302784
1997,IA,Mills,41.033703,95.619101,76.5556635850432
1997,IA,Fremont,40.743726,95.59951600000001,71.80573582380167
1997,MO,Atchison,40.431846,95.437555,54.71091181621438
1997,MO,Holt,40.095724,95.219072,50.27392381011119
1997,NE,Richardson,40.123743,95.718603,43.63560177945393
1997,NE,Nemaha,40.387448,95.850954,49.95250031831056
1997,NE,Johnson,40.395457,96.268562,52.47782977523822
1997,NE,Pawnee,40.13785,96.245225,49.841622751109064
1997,NE,Gage,40.255234,96.683453,54.430054438638344
1997,NE,Lancaster,40.783547,96.68865799999999,53.90551485641496
1997,NE,Seward,40.871944,97.140383,53.5250393135342
1997,NE,York,40.873056,97.596742,54.32474334984126
1997,NE,Fillmore,40.525040000000004,97.596705,56.3173658435275
1997,NE,Saline,40.516802,97.131755,57.06808372256769
1997,NE,Jefferson,40.175736,97.143103,53.63428665212205
1997,NE,Thayer,40.173845,97.59626300000001,63.04966735457228
1997,NE,Nuckolls,40.176491999999996,98.046842,54.350131259748146
1997,KS,Jewell,39.77701,98.222584,38.40167157626827
1997,KS,Smith,39.784659999999995,98.78543,41.838788989103605
1997,NE,Webster,40.180646,98.49859000000001,41.063539139272706
1997,NE,Adams,40.520632,98.50004399999999,38.60209176586727
1997,NE,Clay,40.523669,98.05105,46.25914739431352
1997,NE,Merrick,41.169801,98.031051,43.522663332405074
1997,NE,Nance,41.402386,97.99140799999999,41.736982961877295
1997,NE,Antelope,42.183225,98.058037,41.12950716370183
1997,NE,Wheeler,41.937859,98.522289,47.35379959073649
1997,NE,Garfield,41.905572,98.92299799999999,44.89198956016202
1997,NE,Valley,41.564094,98.98348399999999,48.11793075452997
1997,NE,Greeley,41.5676,98.53056600000001,47.132462963511855
1997,NE,Hall,40.866023,98.49800400000001,47.71293745432771
1997,NE,Howard,41.219403,98.51330300000001,47.727363902878615
1997,NE,Sherman,41.218742999999996,98.972849,52.22484491728324
1997,NE,Buffalo,40.855226,99.07498299999999,51.890768765921486
1997,NE,Custer,41.393893,99.726866,45.66771520578462
1997,NE,Blaine,41.92523,99.990771,41.8173394403976
1997,NE,Thomas,41.848620000000004,100.506911,47.02754226022175
1997,NE,Logan,41.542156,100.443665,53.965413028580656
1997,NE,Frontier,40.530947,100.406683,52.332198110526505
1997,NE,Dawson,40.867378,99.815154,48.43110604918943
1997,NE,Phelps,40.516365,99.40655699999999,47.36041305869409
1997,NE,Gosper,40.509838,99.824078,50.90142133725065
1997,NE,Harlan,40.178765999999996,99.403418,38.117001413042225
1997,KS,Phillips,39.784506,99.34215,39.298454187876665
1997,KS,Norton,39.783867,99.899235,42.448752643864346
1997,NE,Furnas,40.191990999999994,99.909661,43.39704725145076
1997,NE,Red Willow,40.16942,100.468576,46.827207150248135
1997,KS,Decatur,39.783542,100.45970799999999,32.799906053430306
1997,KS,Sheridan,39.350543,100.44120600000001,32.09962209880382
1997,KS,Gove,38.917239,100.48736,47.07195563138399
1997,KS,Lane,38.481286,100.466185,64.70580678041418
1997,KS,Ness,38.480437,99.908745,54.863246284493435
1997,KS,Rush,38.523592,99.30918299999999,43.730124461848725
1997,KS,Ellis,38.914596,99.317329,41.23887545391736
1997,KS,Trego,38.921302000000004,99.86542299999999,40.599046423616656
1997,KS,Graham,39.349445,99.88095200000001,41.91256229002335
1997,KS,Rooks,39.346006,99.324492,43.20041329490522
1997,KS,Osborne,39.348649,98.767876,42.67018935007723
1997,KS,Mitchell,39.393026,98.207362,33.448911307901696
1997,KS,Lincoln,39.047276000000004,98.214265,36.71220746835654
1997,KS,Ellsworth,38.700845,98.20535500000001,38.52180027453403
1997,KS,Barton,38.481239,98.767837,38.307576795279175
1997,KS,Russell,38.916839,98.765638,38.66589914207917
1997,KS,Stafford,38.03563,98.719889,34.253287363311586
1997,KS,Rice,38.347178,98.201415,41.76853010542378
1997,KS,Reno,37.948184999999995,98.078346,41.23563885030753
1997,KS,Kingman,37.552951,98.144529,47.702152888782855
1997,KS,Harper,37.188184,98.06659,54.224965515291565
1997,KS,Barber,37.222906,98.685052,51.53788365792814
1997,KS,Pratt,37.647594,98.74011999999999,43.42761229803026
1997,KS,Clark,37.233831,99.813869,55.76524020935793
1997,KS,Comanche,37.189071000000006,99.25408900000001,58.25222627733285
1997,KS,Kiowa,37.561231,99.286539,69.84888983212973
1997,KS,Pawnee,38.182873,99.23215400000001,48.95310200922019
1997,KS,Edwards,37.883595,99.304746,71.20381524582716
1997,KS,Ford,37.688365000000005,99.884734,78.06620110237742
1997,KS,Hodgeman,38.087493,99.89840699999999,75.93027736827095
1997,KS,Gray,37.744513,100.451716,66.19775022408322
1997,KS,Meade,37.243885999999996,100.36009399999999,56.191332191099214
1997,OK,Beaver,36.748334,100.483056,47.92517665571801
1997,TX,Lipscomb,36.2802,100.272683,58.45356039643465
1997,OK,Harper,36.800456,99.662842,49.27587932123948
1997,OK,Woodward,36.425619,99.273661,71.05398989110455
1997,OK,Roger Mills,35.708554,99.74157199999999,77.54672445771443
1997,TX,Hemphill,35.816237,100.284807,67.51775636700741
1997,TX,Wheeler,35.392593,100.253107,74.06183033390593
1997,TX,Collingsworth,34.963358,100.27213499999999,63.56780230090039
1997,TX,Hall,34.453189,100.57634300000001,58.71841647897315
1997,TX,Cottle,34.091906,100.276442,67.37272050805424
1997,TX,Hardeman,34.289904,99.74569699999999,85.08755635932498
1997,OK,Jackson,34.593949,99.41221,97.3500943382502
1997,OK,Greer,34.935263,99.552968,90.0478115451346
1997,OK,Harmon,34.745971000000004,99.84419399999999,83.10198815358603
1997,OK,Beckham,35.273945,99.671638,88.1165355293613
1997,OK,Washita,35.290177,98.991962,78.16216079974905
1997,OK,Kiowa,34.921489,98.981617,84.75532452183207
1997,TX,Wilbarger,34.084920000000004,99.24244,71.22021119658538
1997,OK,Tillman,34.371085,98.931701,72.85665037919554
1997,OK,Comanche,34.662628000000005,98.476597,66.68305873156787
1997,OK,Cotton,34.290676,98.37343800000001,61.81807208539993
1997,OK,Stephens,34.481361,97.85560699999999,55.6327401286318
1997,OK,Caddo,35.16792,98.381045,59.25566316607479
1997,OK,Canadian,35.543416,97.97983599999999,63.4719813295603
1997,OK,Kingfisher,35.949431,97.934568,57.633715160119934
1997,OK,Blaine,35.877782,98.428934,62.47517598052515
1997,OK,Custer,35.645601,98.99738599999999,68.8380700643787
1997,OK,Dewey,35.978433,99.014094,79.80323072359809
1997,OK,Woods,36.765141,98.868967,57.990845486307144
1997,OK,Alfalfa,36.729703,98.32344499999999,62.943387088765505
1997,OK,Grant,36.788253999999995,97.788151,60.47384906620948
1997,OK,Kay,36.814842,97.143755,71.61733031095814
1997,OK,Pawnee,36.313704,96.696669,83.96384509280942
1997,OK,Payne,36.079225,96.975255,62.39205853151492
1997,OK,Noble,36.384901,97.236335,68.91464976427736
1997,OK,Garfield,36.378273,97.787729,66.37589614416353
1997,OK,Logan,35.914151000000004,97.450764,55.05603225188438
1997,OK,Oklahoma,35.554611,97.409401,57.07622147844643
1997,OK,McClain,35.016414000000005,97.449811,57.435630120590446
1997,OK,Grady,35.021058000000004,97.88689000000001,62.3929238990505
1997,OK,Cleveland,35.203117,97.32833199999999,58.67269900854414
1997,OK,Carter,34.251847999999995,97.287927,53.90008863605149
1997,OK,Garvin,34.70935,97.31272299999999,49.013832325716436
1997,OK,Murray,34.485766,97.071557,51.79284968092378
1997,OK,Johnston,34.313455,96.654255,47.654424841714366
1997,OK,Pontotoc,34.721071,96.692738,45.12484859155449
1997,OK,Pottawatomie,35.211393,96.95700699999999,47.87460395176029
1997,OK,Seminole,35.158366,96.602858,45.66214176185708
1997,OK,Lincoln,35.703117999999996,96.881392,56.2401422249349
1997,OK,Okmulgee,35.646879,95.96458,56.61767653895573
1997,OK,Okfuskee,35.466803999999996,96.32776199999999,54.29125913202804
1997,OK,Hughes,35.052934,96.251183,44.99574284748153
1997,OK,Atoka,34.374813,96.034705,50.876501195889865
1997,OK,Latimer,34.875137,95.272263,59.57725698500568
1997,OK,Haskell,35.232294,95.109578,70.43829943426954
1997,OK,McIntosh,35.369091999999995,95.671764,61.8695668761884
1997,OK,Mayes,36.303804,95.235638,74.36041862173825
1997,OK,Rogers,36.378082,95.601337,65.95463679427132
1997,OK,Wagoner,35.963479,95.5141,59.02523889165762
1997,OK,Creek,35.907732,96.379793,68.97559572442198
1997,OK,Tulsa,36.120121000000005,95.941731,65.26939853925772
1997,OK,Washington,36.70438,95.906155,76.89634559277944
1997,OK,Nowata,36.789615000000005,95.613312,65.0990020222095
1997,OK,Craig,36.76389,95.201553,60.18086047856245
1997,KS,Labette,37.191468,95.297473,69.38204140728645
1997,KS,Anderson,38.215114,95.292046,59.229676728065655
1997,KS,Coffey,38.23645,95.729137,51.54810177644869
1997,KS,Greenwood,37.878659000000006,96.242232,63.02399511408279
1997,KS,Woodson,37.888484000000005,95.757553,74.6864921947511
1997,KS,Wilson,37.558515,95.745175,88.25138525720187
1997,KS,Montgomery,37.189537,95.742403,83.45862351388924
1997,KS,Elk,37.456026,96.244642,86.82652450941387
1997,KS,Chautauqua,37.154259,96.245396,86.4605884179669
1997,KS,Cowley,37.234507,96.83724699999999,71.56210736984794
1997,KS,Sumner,37.236663,97.493349,50.79028910270843
1997,KS,Sedgwick,37.683807,97.459451,56.92077487884595
1997,KS,Harvey,38.050144,97.436707,53.56918894198368
1997,KS,Marion,38.359646999999995,97.10277099999999,48.66985579704654
1997,KS,Butler,37.773680999999996,96.838762,54.04844280101903
1997,KS,Chase,38.298553000000005,96.594064,56.54324812230134
1997,KS,Morris,38.687696,96.64490500000001,62.396683254852036
1997,KS,McPherson,38.395812,97.64748900000001,42.57517330917421
1997,KS,Saline,38.786327,97.650153,44.02016611205764
1997,KS,Dickinson,38.867734999999996,97.157943,42.89625956289808
1997,KS,Ottawa,39.137963,97.654803,41.22094094215841
1997,KS,Republic,39.82891,97.650921,45.50076163096926
1997,KS,Cloud,39.487328999999995,97.64139,43.306905627338246
1997,KS,Washington,39.776714,97.095611,43.21549066759191
1997,KS,Geary,39.002155,96.768038,45.80613508727114
1997,KS,Riley,39.291211,96.727489,38.72802418317421
1997,KS,Marshall,39.782709000000004,96.521243,48.61417704341967
1997,KS,Nemaha,39.791043,96.005381,45.04734789107282
1997,KS,Pottawatomie,39.382187,96.337113,45.440673378833246
1997,KS,Wabaunsee,38.955154,96.201262,55.28412349340209
1997,KS,Lyon,38.455498,96.161589,54.719744114488535
1997,KS,Osage,38.649706,95.727275,42.28011660162332
1997,KS,Franklin,38.558019,95.27896199999999,42.5184438082056
1997,KS,Douglas,38.896573,95.290529,39.03920745170835
1997,KS,Shawnee,39.041805,95.755664,50.47921105952215
1997,KS,Jefferson,39.239644,95.375314,54.22962916254054
1997,KS,Brown,39.825931,95.569905,48.5597789530953
1997,KS,Atchison,39.532544,95.31339799999999,55.71022667844419
1997,MO,Buchanan,39.66037,94.808173,50.62190325655249
1997,MO,Platte,39.378696000000005,94.761472,44.8262666306108
1997,KS,Leavenworth,39.189510999999996,95.038977,42.690710995322135
1997,MO,Jackson,39.007233,94.342507,43.56289095071294
1997,MO,Johnson,38.74588,93.805999,55.20956420932951
1997,MO,Lafayette,39.068705,93.802639,47.47730398421915
1997,MO,Clay,39.315551,94.421502,49.91906240312161
1997,MO,Clinton,39.608723,94.395803,55.419499118498535
1997,MO,Carroll,39.427375,93.500227,53.408696127073824
1997,MO,Macon,39.829795000000004,92.56434,54.43151972586417
1997,MO,Chariton,39.517969,92.961621,58.23334330735086
1997,MO,Howard,39.143365,92.695926,74.34671980523773
1997,MO,Cooper,38.845386,92.81232299999999,74.61195646538911
1997,MO,Pettis,38.727367,93.285207,73.01304884272231
1997,MO,Saline,39.13584,93.204164,59.308490862341614
1997,MO,Benton,38.301035999999996,93.287942,75.98739977319997
1997,MO,Morgan,38.420807,92.874835,67.02916871137883
1997,MO,Moniteau,38.633037,92.583642,61.58161639865137
1997,MO,Camden,38.031995,92.76513800000001,59.57747305396596
1997,MO,Laclede,37.659690000000005,92.594832,49.39653440058501
1997,MO,Dallas,37.683583,93.033812,57.29983568095584
1997,MO,Hickory,37.9367,93.322835,64.5597178818195
1997,MO,Polk,37.616761,93.400817,59.38009797317867
1997,MO,Dade,37.43235,93.854878,66.81124759007278
1997,MO,Cedar,37.733655,93.850014,74.60966609006637
1997,MO,St. Clair,38.039069,93.773077,78.91657351169789
1997,MO,Henry,38.386491,93.79262800000001,75.11293419144836
1997,MO,Cass,38.647159,94.354242,46.58017705426733
1997,MO,Bates,38.257217,94.339246,63.94793527241673
1997,MO,Vernon,37.850196000000004,94.341597,67.84892588411005
1997,KS,Miami,38.566772,94.832963,52.08268346579272
1997,KS,Linn,38.216549,94.844932,63.892805912703466
1997,KS,Bourbon,37.8561,94.850928,69.8239527772651
1997,MO,Barton,37.500799,94.344089,66.48002537329221
1997,KS,Crawford,37.505628,94.853941,66.82307494842081
1997,KS,Cherokee,37.169391999999995,94.845698,61.93150946613267
1997,MO,Jasper,37.200865,94.33886899999999,64.71050000091485
1997,MO,Barry,36.699378,93.834326,65.41277237790797
1997,MO,Newton,36.908017,94.33474100000001,70.23328842827581
1997,MO,McDonald,36.630218,94.343956,71.68485490386911
1997,AR,Washington,35.971209,94.218417,82.8902580710147
1997,AR,Benton,36.337825,94.256187,78.49476409170944
1997,OK,Delaware,36.393369,94.80820600000001,71.50642403736862
1997,OK,Cherokee,35.904367,94.996796,72.67304447308256
1997,OK,Adair,35.8975,94.651671,88.49357719915449
1997,OK,Sequoyah,35.502435,94.750757,82.36636450021561
1997,OK,Le Flore,34.899642,94.703491,61.031862660806105
1997,AR,Polk,34.490915,94.230884,84.77214990532262
1997,AR,Sebastian,35.196981,94.274989,54.07107712214421
1997,AR,Crawford,35.583040999999994,94.23622399999999,76.71349628250726
1997,AR,Franklin,35.508573,93.887672,61.61673158697722
1997,AR,Johnson,35.573359,93.46632199999999,63.84794939818102
1997,AR,Montgomery,34.545652000000004,93.664147,79.53221199995403
1997,AR,Yell,34.997713,93.408303,68.30352176768963
1997,AR,Garland,34.578860999999996,93.146915,68.99075699141646
1997,AR,Perry,34.946363,92.926877,73.45106653654774
1997,AR,Hot Spring,34.315177,92.944147,64.9129168088781
1997,AR,Saline,34.648525,92.674463,67.63474778490716
1997,AR,Conway,35.265702000000005,92.68924799999999,91.4309896180942
1997,AR,Pope,35.455296999999995,93.03153499999999,74.43425975475536
1997,AR,Van Buren,35.582959,92.515977,85.53924678322596
1997,AR,Searcy,35.909659999999995,92.69935100000001,48.71723938647934
1997,AR,Marion,36.266656,92.678588,42.660288943607505
1997,AR,Newton,35.910063,93.21508399999999,54.0667040256384
1997,AR,Madison,36.012545,93.724053,68.49699960071021
1997,AR,Carroll,36.337773999999996,93.541663,62.61873436305065
1997,AR,Boone,36.304308,93.079204,50.241912156591425
1997,MO,Stone,36.747857,93.467782,59.76578833668779
1997,MO,Greene,37.258196000000005,93.340641,53.410533646772315
1997,MO,Christian,36.969739000000004,93.187614,54.84286285418763
1997,MO,Taney,36.649827,93.042819,53.76768663297391
1997,MO,Webster,37.280803999999996,92.87608,49.727540440475714
1997,MO,Shannon,37.15198,91.398364,55.23619165644021
1997,MO,Howell,36.774369,91.88736800000001,48.59176208684258
1997,MO,Oregon,36.684867,91.402902,52.90317820799584
1997,AR,Sharp,36.173398999999996,91.471069,60.226943226927844
1997,AR,Izard,36.094879,91.913625,57.94961205215762
1997,MO,Ozark,36.649643,92.45858,49.73113586806762
1997,AR,Baxter,36.28071,92.330438,42.52099065304961
1997,AR,Stone,35.856989,92.14049399999999,68.30068852390905
1997,AR,Cleburne,35.566288,92.059974,79.93483259328461
1997,AR,Faulkner,35.146356,92.32465400000001,92.63199685686831
1997,AR,Pulaski,34.773988,92.316515,70.37185527100588
1997,AR,Lonoke,34.755114,91.894132,75.94648526708754
1997,AR,Prairie,34.828225,91.5572,70.79176209424755
1997,AR,White,35.254721999999994,91.753158,73.93494257340029
1997,AR,Jackson,35.596605,91.223178,71.51214243522014
1997,AR,Woodruff,35.189071000000006,91.24441800000001,75.27570674263805
1997,AR,Monroe,34.679513,91.203314,73.55771787914398
1997,AR,St. Francis,35.014438,90.742199,78.30933924442185
1997,AR,Cross,35.291259000000004,90.773894,83.3310878808083
1997,AR,Lee,34.77975,90.779288,77.55684485271563
1997,MS,Tunica,34.652201,90.37177,84.84532268146778
1997,AR,Crittenden,35.211878000000006,90.315331,73.98921369276759
1997,MS,DeSoto,34.874266,89.99324,71.96303422144041
1997,MO,Dunklin,36.153025,90.06225400000001,62.29670341356474
1997,AR,Greene,36.119921999999995,90.565241,61.997015859506
1997,AR,Clay,36.367302,90.418704,53.27277254558332
1997,AR,Lawrence,36.041098,91.101153,65.57537891394486
1997,AR,Randolph,36.341299,91.028441,60.47031664873979
1997,MO,Ripley,36.648902,90.86706,57.33638190259454
1997,MO,Carter,36.944783,90.945626,49.64586297818981
1997,MO,Wayne,37.113825,90.460868,53.06098840396356
1997,MO,Butler,36.71518,90.40313,54.92233226442767
1997,MO,Madison,37.473234999999995,90.345453,68.90205349072714
1997,MO,Ste. Genevieve,37.89018,90.18117,57.532375027279606
1997,IL,Monroe,38.277983,90.179078,51.972613605005186
1997,MO,St. Francois,37.810707,90.47386800000001,63.383520255407845
1997,MO,Jefferson,38.257414000000004,90.543138,53.96072163376522
1997,MO,Franklin,38.408313,91.07341,54.13665410310546
1997,MO,Washington,37.942315,90.897056,52.54419621461236
1997,MO,Iron,37.62596,90.699627,66.35947065544565
1997,MO,Reynolds,37.360857,90.969516,67.6014641437976
1997,MO,Dent,37.60325,91.49591600000001,53.98891732333857
1997,MO,Texas,37.314257,91.964478,56.3889692580148
1997,MO,Wright,37.267635999999996,92.48001,51.667621882322855
1997,MO,Pulaski,37.824835,92.207022,57.96961975678782
1997,MO,Phelps,37.866326,91.79034899999999,52.719722822781314
1997,MO,Maries,38.162615,91.923601,53.77654913237283
1997,MO,Miller,38.21672,92.42987099999999,52.82691777477783
1997,MO,Osage,38.464254,91.859504,45.889715255406024
1997,MO,Crawford,37.966561,91.31393299999999,49.635513915913435
1997,MO,Gasconade,38.441183,91.50578,49.09669628017069
1997,MO,Montgomery,38.935162,91.465437,46.51154052355675
1997,MO,Callaway,38.835966,91.924089,47.296630510413465
1997,MO,Cole,38.506847,92.271404,44.761059478200494
1997,MO,Boone,38.989657,92.31077900000001,67.52954569022879
1997,MO,Randolph,39.441601,92.492725,65.86861767338931
1997,MO,Monroe,39.49827,92.006458,67.286071869012
1997,MO,Marion,39.807538,91.635379,73.89979775375042
1997,MO,Ralls,39.553455,91.524787,71.69566849454229
1997,MO,Pike,39.344178,91.171042,46.19574544522514
1997,MO,Lincoln,39.058568,90.957771,45.96824779724406
1997,MO,Warren,38.761902,91.159307,49.940532412535724
1997,IL,Calhoun,39.164262,90.66629499999999,45.718374555712344
1997,IL,Jersey,39.080192,90.361365,48.54204022912279
1997,MO,St. Louis,38.640702000000005,90.445954,50.64410337558701
1997,IL,Greene,39.355444,90.387757,46.0794375531885
1997,IL,Morgan,39.716806,90.202277,43.180181253073634
1997,IL,Cass,39.969202,90.245705,46.32149008223154
1997,IL,Fulton,40.465688,90.206793,49.26509476336578
1997,IL,Brown,39.962069,90.75031,41.73011427121647
1997,IL,Hancock,40.405792,91.167988,59.45215179370621
1997,IL,McDonough,40.455789,90.67757900000001,43.54618707902811
1997,IL,Warren,40.850441,90.620223,45.27107268825815
1997,IL,Knox,40.930941,90.213761,58.627893193816966
1997,IL,Henry,41.350021000000005,90.130838,50.68347496072505
1997,IA,Jackson,42.164281,90.574597,46.89729757496286
1997,IA,Clinton,41.898073,90.534243,53.30068316453518
1997,IA,Jones,42.125118,91.11691400000001,41.29489547541788
1997,IA,Cedar,41.772355,91.13219000000001,37.400711573503045
1997,IA,Scott,41.641678999999996,90.62229,46.715671054717376
1997,IL,Mercer,41.204791,90.741433,44.77881701226652
1997,IA,Muscatine,41.483776,91.11869899999999,40.68294984045353
1997,IA,Johnson,41.668737,91.588812,45.622426877639256
1997,IA,Linn,42.077951,91.597674,47.49278452371521
1997,IA,Benton,42.092546999999996,92.05763,58.00054929287045
1997,IA,Iowa,41.683918,92.059123,57.745054837689764
1997,IA,Keokuk,41.331182,92.167721,47.79387014065107
1997,IA,Jefferson,41.006879999999995,91.967137,39.92353468349352
1997,IA,Washington,41.329401000000004,91.725052,48.71943461732366
1997,IA,Louisa,41.218211,91.25699399999999,43.24530237795269
1997,IA,Des Moines,40.915339,91.186925,41.70974705296965
1997,IA,Lee,40.647588,91.47715699999999,41.54970682242134
1997,IL,Adams,39.986053000000005,91.19496099999999,59.43438277249235
1997,MO,Clark,40.407275,91.729472,46.08022207202541
1997,MO,Lewis,40.084559000000006,91.728803,61.56857963292251
1997,IA,Van Buren,40.754117,91.952943,36.69294211828436
1997,MO,Scotland,40.447686,92.142824,37.61350943445277
1997,MO,Knox,40.136776,92.14680899999999,47.937498854971075
1997,MO,Putnam,40.478606,93.014531,61.77718713326125
1997,MO,Adair,40.190666,92.603592,49.44491458296233
1997,IA,Davis,40.748089,92.41034499999999,46.94953458018336
1997,IA,Wapello,41.031263,92.409482,46.62003837753141
1997,IA,Monroe,41.028847,92.869642,62.57761788209067
1997,IA,Lucas,41.033344,93.331467,68.62220032571304
1997,MO,Mercer,40.421414,93.567631,66.38647493259926
1997,IA,Wayne,40.739983,93.332613,69.16744558243495
1997,MO,Sullivan,40.209587,93.109783,58.80601803232214
1997,MO,Linn,39.86444,93.108019,56.938213888248406
1997,MO,Livingston,39.778587,93.548201,57.69482517797122
1997,MO,Grundy,40.112541,93.565054,61.605378707924594
1997,MO,Harrison,40.345620000000004,93.992582,57.1101361559772
1997,MO,DeKalb,39.894665,94.40719,56.32579346383282
1997,MO,Andrew,39.988863,94.803551,47.80161685313168
1997,KS,Doniphan,39.788502,95.147225,48.22578276211333
1997,MO,Nodaway,40.360484,94.88328100000001,52.089263670340365
1997,MO,Gentry,40.209379,94.40411,47.207402011599854
1997,IA,Adams,41.021656,94.69690600000001,46.36809334166525
1997,IA,Taylor,40.737949,94.697108,48.720843477438876
1997,IA,Union,41.02855,94.245091,49.61933201984206
1997,IA,Ringgold,40.735334,94.244251,51.876428229638776
1997,MO,Worth,40.480482,94.419129,48.32671140882586
1997,IA,Clarke,41.029191,93.78409599999999,54.41547709442617
1997,IA,Decatur,40.736379,93.78458,61.00241750532772
1997,IA,Dallas,41.685321,94.040707,37.879731292778224
1997,IA,Madison,41.330622,94.01518399999999,42.33244219464064
1997,IA,Cass,41.333824,94.933302,44.266965990889396
1997,IA,Audubon,41.679178,94.904312,43.937211343613576
1997,IA,Guthrie,41.683572999999996,94.501272,34.97050860420133
1997,IA,Carroll,42.039491999999996,94.86764699999999,41.61459534595244
1997,IA,Greene,42.042494,94.388703,37.39241745713272
1997,IA,Boone,42.038601,93.939138,48.9530476531016
1997,IA,Story,42.037538,93.466093,59.00455254621577
1997,IA,Polk,41.684281,93.56971999999999,49.47625391245696
1997,IA,Warren,41.336769,93.564366,56.78347200958436
1997,IA,Marion,41.331455,93.093849,65.99108839274801
1997,IA,Jasper,41.685686,93.052971,63.84387476110122
1997,IA,Mahaska,41.330797,92.63636600000001,57.42858291902994
1997,IA,Poweshiek,41.684526,92.522882,61.46292194578943
1997,IA,Tama,42.074847999999996,92.529412,64.53392787476582
1997,IA,Marshall,42.041691,92.981452,62.09138892994474
1997,IA,Grundy,42.403323,92.790261,58.10716540903896
1997,IA,Butler,42.734708000000005,92.780066,55.16549324248416
1997,IA,Floyd,43.052741,92.787367,51.63447547614174
1997,IA,Mitchell,43.348564,92.78446600000001,51.399187870063685
1997,IA,Worth,43.373490999999994,93.248533,45.16490111667017
1997,IA,Cerro Gordo,43.075171000000005,93.251266,44.09666639046439
1997,IA,Hardin,42.389955,93.24108100000001,59.05503406711711
1997,IA,Franklin,42.736549,93.271425,53.53323607018736
1997,IA,Hamilton,42.390768,93.709198,50.254347823638895
1997,IA,Wright,42.733007,93.734735,49.37858508354145
1997,IA,Webster,42.434397,94.17915699999999,36.544036964938726
1997,IA,Humboldt,42.782221,94.202775,36.350138795778776
1997,IA,Calhoun,42.38617,94.643683,36.304366973849284
1997,IA,Sac,42.387526,95.10522399999999,37.20669852927754
1997,IA,Buena Vista,42.741521999999996,95.14143299999999,36.372857706533686
1997,IA,Pocahontas,42.734033000000004,94.678279,36.742349170029826
1997,IA,Palo Alto,43.075854,94.66729699999999,34.24119399586079
1997,IA,Clay,43.079822,95.149726,29.447112047937754
1997,IA,Emmet,43.377984000000005,94.66937,30.536776463605968
1997,IA,Kossuth,43.212478000000004,94.213983,37.1189021482116
1997,IA,Hancock,43.075410999999995,93.743697,36.7298649323356
1997,IA,Winnebago,43.378124,93.743488,40.577966242293776
1997,MN,Faribault,43.676522,93.947234,41.41571987978167
1997,MN,Blue Earth,44.038225,94.064071,39.13101259668794
1997,MN,Martin,43.677118,94.537198,34.156855384396
1997,MN,Watonwan,43.978365999999994,94.61412800000001,32.753390266056606
1997,MN,McLeod,44.821644,94.27232,57.44977855443517
1997,MN,Sibley,44.575734000000004,94.23012299999999,49.5087997331467
1997,MN,Carver,44.821381,93.800575,62.586944237371284
1997,MN,Scott,44.651932,93.534553,69.43984144356428
1997,MN,Le Sueur,44.373397,93.73018,53.71377602140535
1997,MN,Waseca,44.01846,93.589844,41.04020079841493
1997,MN,Freeborn,43.674202,93.350289,45.02503779223563
1997,MN,Rice,44.350943,93.298503,42.61198271585268
1997,MN,Mower,43.666249,92.759514,46.91669180210425
1997,MN,Goodhue,44.406178000000004,92.71600000000001,40.05705175114441
1997,MN,Dakota,44.670893,93.062481,55.3870217263737
1997,WI,Dunn,44.947741,91.89771999999999,43.46553683950923
1997,WI,Pepin,44.627435999999996,91.83489,34.23942285368712
1997,WI,Eau Claire,44.726355,91.28641400000001,28.88079118761846
1997,WI,Trempealeau,44.30305,91.358867,30.5115501302075
1997,MN,Winona,43.982268,91.776708,39.10166860010466
1997,WI,Buffalo,44.389759000000005,91.758714,30.18105398701711
1997,MN,Wabasha,44.289693,92.23334100000001,39.52277933456553
1997,MN,Olmsted,44.00343,92.406722,41.036840431539225
1997,MN,Fillmore,43.67727,92.093681,48.70510980778778
1997,IA,Howard,43.365313,92.321908,58.29344636178586
1997,IA,Chickasaw,43.059740999999995,92.31721,59.97618431931768
1997,IA,Bremer,42.78089,92.327586,61.74181594851695
1997,IA,Black Hawk,42.472888,92.30605899999999,62.54127104193383
1997,IA,Buchanan,42.470328,91.838666,57.82778697163347
1997,IA,Fayette,42.86445,91.839373,55.36676504207792
1997,IA,Delaware,42.473003000000006,91.359443,51.04084198017697
1997,IA,Allamakee,43.274964000000004,91.382751,47.102663241518364
1997,IA,Winneshiek,43.292989,91.850788,49.9048840552872
1997,MN,Houston,43.666990000000006,91.50155600000001,54.77431446192779
1997,WI,Crawford,43.24991,90.95123000000001,44.60722728271033
1997,IA,Dubuque,42.463481,90.878771,36.93002987768318
1997,WI,Lafayette,42.655578000000006,90.130292,53.669229179400126
1997,WI,Iowa,43.001021,90.13369200000001,60.20574427664803
1997,WI,Richland,43.376199,90.435693,44.38348093134165
1997,WI,Juneau,43.932836,90.113984,36.5495317347462
1997,WI,Monroe,43.945175,90.619969,36.46625555417417
1997,WI,La Crosse,43.908221999999995,91.111758,44.43503296350425
1997,WI,Jackson,44.324895,90.80654100000001,34.7150073885084
1997,WI,Clark,44.733596,90.610201,35.11935495492703
1997,WI,Wood,44.461413,90.038825,41.93509187975815
1997,WI,Adams,43.973763,89.767223,33.11706678533052
1997,WI,Portage,44.476246,89.49807,38.74659293178312
1997,WI,Waushara,44.112825,89.239752,38.653300202768
1997,WI,Waupaca,44.478004,88.96700600000001,38.23919109125011
1997,WI,Menominee,44.991304,88.669251,42.63040357767808
1997,WI,Brown,44.473960999999996,87.995926,32.02209856917037
1997,WI,Manitowoc,44.105108,87.313828,31.82573532627404
1997,WI,Calumet,44.07841,88.212132,36.03938915981286
1997,WI,Outagamie,44.418226000000004,88.464988,34.98973359081357
1997,WI,Winnebago,44.085707,88.668149,37.28270032489648
1997,WI,Dodge,43.422706,88.704379,50.56082762107661
1997,WI,Milwaukee,43.017655,87.481575,58.48288636694805
1997,WI,Racine,42.754075,87.414676,39.80894267133237
1997,WI,Waukesha,43.019308,88.30670699999999,59.444845493204056
1997,WI,Jefferson,43.013807,88.773986,53.47069903947846
1997,WI,Green Lake,43.76141,88.987228,34.29039861416748
1997,WI,Marquette,43.826053,89.409095,36.00616514997709
1997,WI,Green,42.677728,89.605639,54.02634871538592
1997,IL,Stephenson,42.349726000000004,89.665994,42.694569492506155
1997,WI,Rock,42.669931,89.075119,51.605285080008535
1997,IL,Winnebago,42.337396000000005,89.16120500000001,44.242119922041645
1997,IL,Ogle,42.041884,89.320176,36.036242194060186
1997,IL,Lee,41.747442,89.299351,36.927870455711776
1997,IL,Whiteside,41.750571,89.910957,42.33027851371652
1997,IL,Bureau,41.401303999999996,89.528377,48.71854879876808
1997,IL,Peoria,40.785999,89.767358,56.44158393241022
1997,IL,Tazewell,40.508074,89.51626,42.89225836115384
1997,IL,Logan,40.12907,89.365308,48.20334477344093
1997,IL,De Witt,40.181499,88.901853,50.5544369805128
1997,IL,Woodford,40.789596,89.210301,45.48910353543592
1997,IL,Marshall,41.031119,89.342371,53.303487879466466
1997,IL,Livingston,40.894376,88.552852,54.17759513508517
1997,IL,Champaign,40.13915,88.197201,51.17166806139935
1997,IL,Vermilion,40.18674,87.726772,52.149026739299536
1997,IL,Iroquois,40.748867,87.833601,48.20666985573067
1997,IL,Ford,40.594423,88.224746,49.06923335085322
1997,IL,Grundy,41.29241,88.401055,46.276157760652254
1997,IL,DeKalb,41.894613,88.768991,38.25884993031725
1997,IL,Kane,41.939594,88.42804,42.64946765692057
1997,WI,Walworth,42.66811,88.541731,50.253952998130636
1997,IL,McHenry,42.324298,88.45224499999999,43.00995633762079
1997,WI,Kenosha,42.579703,87.424898,42.21867946331695
1997,IL,Lake,42.326444,87.43611800000001,39.073025606552186
1997,MI,Berrien,41.792639,86.741822,43.29649031395771
1997,IN,LaPorte,41.549011,86.744729,47.15401510948059
1997,IN,Lake,41.472239,87.374337,48.959821206924076
1997,IN,Porter,41.509921999999996,87.071308,43.330496016673095
1997,IN,Jasper,41.017688,87.118814,45.568608472998044
1997,IN,Newton,40.962399,87.402172,47.84747448477357
1997,IN,Fountain,40.121282,87.234806,49.54566066511669
1997,IN,Tippecanoe,40.38926,86.89394300000001,45.98117343099742
1997,IN,Clinton,40.305944000000004,86.47756700000001,59.53858480765688
1997,IN,Cass,40.753799,86.35516899999999,49.43525551729949
1997,IN,Carroll,40.58498,86.565141,47.833045441270116
1997,IN,White,40.75095,86.864293,43.661996369358256
1997,IN,Pulaski,41.045272,86.692538,45.48161065499431
1997,IN,Starke,41.28322,86.64757,48.63197538228997
1997,IN,Fulton,41.050384,86.265006,44.46846202226323
1997,IN,Miami,40.772881,86.044259,55.60179871534689
1997,IN,Wabash,40.843717,85.795175,53.2555425949584
1997,IN,Howard,40.483537,86.114118,62.138928217107924
1997,IN,Hamilton,40.04987,86.020586,50.784461477645216
1997,IN,Wells,40.735273,85.212974,54.979822756044996
1997,IN,Allen,41.091854999999995,85.07223,53.30351532797553
1997,IN,LaGrange,41.642468,85.426302,63.34574503080097
1997,IN,Noble,41.400794,85.41785,56.80443877173135
1997,IN,Marshall,41.325003,86.269036,39.40197878673304
1997,IN,Kosciusko,41.244293,85.861575,40.864519073962256
1997,IN,St. Joseph,41.617699,86.288159,38.904248158575676
1997,MI,Cass,41.91624,85.99945699999999,46.11754483947937
1997,MI,Van Buren,42.283986,86.305697,43.24825451149969
1997,MI,St. Joseph,41.911488,85.52287,62.052567331630705
1997,MI,Branch,41.918585,85.066523,52.77985900407591
1997,MI,Calhoun,42.24299,85.012385,38.48173789115119
1997,MI,Barry,42.582811,85.31455,44.6905608883925
1997,MI,Ionia,42.94465,85.073766,56.997767531213
1997,MI,Montcalm,43.312782,85.149468,53.35798308815068
1997,MI,Newaygo,43.562709000000005,85.791423,34.31301607875489
1997,MI,Muskegon,43.289258000000004,86.751892,39.75200670576186
